addr_en,lng,stopName_zh-cn,stopId,addr_zh,type,stopName_zh-hk,stopName_zh,addr_zh-cn,provider,stopName_en,addr_zh-hk,addr,stopName,lat
YING TUNG HOUSE,114.19103685169186,盈东楼,8090,盈東樓,bus,盈東樓,盈東樓,盈东楼,hktransit,YING TUNG HOUSE,盈東樓,YING TUNG HOUSE,YING TUNG HOUSE,22.33404708581095
KOWLOON WALLED CITY PARK,114.18814403122202,九龙寨城公园,4008,九龍寨城公園,bus,九龍寨城公園,九龍寨城公園,九龙寨城公园,hktransit,KOWLOON WALLED CITY PARK,九龍寨城公園,KOWLOON WALLED CITY PARK,KOWLOON WALLED CITY PARK,22.332313442382826
CARPENTER ROAD,114.18711495356072,贾炳达道,4009,賈炳達道,bus,賈炳達道,賈炳達道,贾炳达道,hktransit,CARPENTER ROAD,賈炳達道,CARPENTER ROAD,CARPENTER ROAD,22.33026356901523
MORSE PARK OPEN-AIR THEATRE,114.19155154920443,摩士露天剧场,8089,摩士露天劇場,bus,摩士露天劇場,摩士露天劇場,摩士露天剧场,hktransit,MORSE PARK OPEN-AIR THEATRE,摩士露天劇場,MORSE PARK OPEN-AIR THEATRE,MORSE PARK OPEN-AIR THEATRE,22.336214378319916
HONG KEUNG COURT,114.19003735992884,康强苑,12364,康強苑,bus,康強苑,康強苑,康强苑,hktransit,HONG KEUNG COURT,康強苑,HONG KEUNG COURT,HONG KEUNG COURT,22.33752394216039
WANG YIP HOUSE,114.18927072405798,宏业楼,4043,宏業樓,bus,宏業樓,宏業樓,宏业楼,hktransit,WANG YIP HOUSE,宏業樓,WANG YIP HOUSE,WANG YIP HOUSE,22.340169960648108
TIN WANG COURT,114.18762080280212,天宏苑,1012,天宏苑,bus,天宏苑,天宏苑,天宏苑,hktransit,TIN WANG COURT,天宏苑,TIN WANG COURT,TIN WANG COURT,22.344558935400343
RAINBOW PRIMARY SCHOOL,114.19042639570263,天虹小学,793,天虹小學,bus,天虹小學,天虹小學,天虹小学,hktransit,RAINBOW PRIMARY SCHOOL,天虹小學,RAINBOW PRIMARY SCHOOL,RAINBOW PRIMARY SCHOOL,22.345226986145857
CHUK YUEN ESTATE BUS TERMINUS,114.19244562300135,竹园邨总站,4001,竹園邨總站,bus,竹園邨總站,竹園邨總站,竹园邨总站,hktransit,CHUK YUEN ESTATE BUS TERMINUS,竹園邨總站,CHUK YUEN ESTATE BUS TERMINUS,CHUK YUEN ESTATE BUS TERMINUS,22.34535323202937
PRINCE EDWARD ROAD WEST,114.18702742833517,太子道西,4010,太子道西,bus,太子道西,太子道西,太子道西,hktransit,PRINCE EDWARD ROAD WEST,太子道西,PRINCE EDWARD ROAD WEST,PRINCE EDWARD ROAD WEST,22.32799689806142
LA SALLE ROAD,114.18322238799426,喇沙利道,4011,喇沙利道,bus,喇沙利道,喇沙利道,喇沙利道,hktransit,LA SALLE ROAD,喇沙利道,LA SALLE ROAD,LA SALLE ROAD,22.326516076700344
EARL STREET,114.18054339231719,伯爵街,4012,伯爵街,bus,伯爵街,伯爵街,伯爵街,hktransit,EARL STREET,伯爵街,EARL STREET,EARL STREET,22.326046569681072
KNIGHT STREET,114.17693260041341,励德街,4013,勵德街,bus,勵德街,勵德街,励德街,hktransit,KNIGHT STREET,勵德街,KNIGHT STREET,KNIGHT STREET,22.325405440458223
DIOCESAN BOYS' SCHOOL,114.17449630488034,拔萃男书院,4014,拔萃男書院,bus,拔萃男書院,拔萃男書院,拔萃男书院,hktransit,DIOCESAN BOYS' SCHOOL,拔萃男書院,DIOCESAN BOYS' SCHOOL,DIOCESAN BOYS' SCHOOL,22.324990016635883
HEEP WOH PRIMARY SCHOOL,114.17293358942244,协和小学,4015,協和小學,bus,協和小學,協和小學,协和小学,hktransit,HEEP WOH PRIMARY SCHOOL,協和小學,HEEP WOH PRIMARY SCHOOL,HEEP WOH PRIMARY SCHOOL,22.324710038362568
NELSON STREET MONG KOK,114.16972112702184,旺角奶路臣街,7036,旺角奶路臣街,bus,旺角奶路臣街,旺角奶路臣街,旺角奶路臣街,hktransit,NELSON STREET MONG KOK,旺角奶路臣街,NELSON STREET MONG KOK,NELSON STREET MONG KOK,22.318099535850816
SOY STREET MONG KOK,114.17014828455228,旺角豉油街,4018,旺角豉油街,bus,旺角豉油街,旺角豉油街,旺角豉油街,hktransit,SOY STREET MONG KOK,旺角豉油街,SOY STREET MONG KOK,SOY STREET MONG KOK,22.31602251670843
WING SING LANE YAU MA TEI,114.17109964120526,油麻地永星里,4020,油麻地永星里,bus,油麻地永星里,油麻地永星里,油麻地永星里,hktransit,WING SING LANE YAU MA TEI,油麻地永星里,WING SING LANE YAU MA TEI,WING SING LANE YAU MA TEI,22.311254395894856
CHEONG LOK STREET YAU MA TEI,114.17159478553454,油麻地长乐街,4021,油麻地長樂街,bus,油麻地長樂街,油麻地長樂街,油麻地长乐街,hktransit,CHEONG LOK STREET YAU MA TEI,油麻地長樂街,CHEONG LOK STREET YAU MA TEI,CHEONG LOK STREET YAU MA TEI,22.306730079045813
TAK SHING STREET TSIM SHA TSUI,114.17179867657748,尖沙咀德成街,4022,尖沙咀德成街,bus,尖沙咀德成街,尖沙咀德成街,尖沙咀德成街,hktransit,TAK SHING STREET TSIM SHA TSUI,尖沙咀德成街,TAK SHING STREET TSIM SHA TSUI,TAK SHING STREET TSIM SHA TSUI,22.304382126955772
CAMERON ROAD,114.17216764402328,金马伦道,7041,金馬倫道,bus,金馬倫道,金馬倫道,金马伦道,hktransit,CAMERON ROAD,金馬倫道,CAMERON ROAD,CAMERON ROAD,22.298954738909096
MIDDLE ROAD TSIM SHA TSUI,114.17238124228699,尖沙咀中间道,4024,尖沙咀中間道,bus,尖沙咀中間道,尖沙咀中間道,尖沙咀中间道,hktransit,MIDDLE ROAD TSIM SHA TSUI,尖沙咀中間道,MIDDLE ROAD TSIM SHA TSUI,MIDDLE ROAD TSIM SHA TSUI,22.295857242649433
HONG KONG CULTURAL CENTRE,114.17129441110346,香港文化中心,7006,香港文化中心,bus,香港文化中心,香港文化中心,香港文化中心,hktransit,HONG KONG CULTURAL CENTRE,香港文化中心,HONG KONG CULTURAL CENTRE,HONG KONG CULTURAL CENTRE,22.294457462924317
STAR FERRY,114.16906245364866,尖沙咀码头,4025,尖沙咀碼頭,bus,尖沙咀碼頭,尖沙咀碼頭,尖沙咀码头,hktransit,STAR FERRY,尖沙咀碼頭,STAR FERRY,STAR FERRY,22.29411420782162
MIDDLE ROAD TSIM SHA TSUI,114.17216774286952,尖沙咀中间道,965,尖沙咀中間道,bus,尖沙咀中間道,尖沙咀中間道,尖沙咀中间道,hktransit,MIDDLE ROAD TSIM SHA TSUI,尖沙咀中間道,MIDDLE ROAD TSIM SHA TSUI,MIDDLE ROAD TSIM SHA TSUI,22.29597463472411
KIMBERLEY ROAD,114.17190558462553,金巴利道,4076,金巴利道,bus,金巴利道,金巴利道,金巴利道,hktransit,KIMBERLEY ROAD,金巴利道,KIMBERLEY ROAD,KIMBERLEY ROAD,22.299993252069388
BOWRING STREET YAU MA TEI,114.1715754530362,油麻地宝灵街,4027,油麻地寶靈街,bus,油麻地寶靈街,油麻地寶靈街,油麻地宝灵街,hktransit,BOWRING STREET YAU MA TEI,油麻地寶靈街,BOWRING STREET YAU MA TEI,BOWRING STREET YAU MA TEI,22.304653038208155
KOWLOON CENTRAL POST OFFICE,114.17111912546012,九龙中央邮政局,9009,九龍中央郵政局,bus,九龍中央郵政局,九龍中央郵政局,九龙中央邮政局,hktransit,KOWLOON CENTRAL POST OFFICE,九龍中央郵政局,KOWLOON CENTRAL POST OFFICE,KOWLOON CENTRAL POST OFFICE,22.30944827569295
MAN MING LANE YAU MA TEI,114.17083758446165,油麻地文明里,193,油麻地文明里,bus,油麻地文明里,油麻地文明里,油麻地文明里,hktransit,MAN MING LANE YAU MA TEI,油麻地文明里,MAN MING LANE YAU MA TEI,MAN MING LANE YAU MA TEI,22.31150724331747
CHEUNG SHA STREET MONG KOK,114.16997358749163,旺角长沙街,9053,旺角長沙街,bus,旺角長沙街,旺角長沙街,旺角长沙街,hktransit,CHEUNG SHA STREET MONG KOK,旺角長沙街,CHEUNG SHA STREET MONG KOK,CHEUNG SHA STREET MONG KOK,22.31589608104141
NELSON STREET MONG KOK,114.16941051216816,旺角奶路臣街,751,旺角奶路臣街,bus,旺角奶路臣街,旺角奶路臣街,旺角奶路臣街,hktransit,NELSON STREET MONG KOK,旺角奶路臣街,NELSON STREET MONG KOK,NELSON STREET MONG KOK,22.318605235285833
HK & KLN CHIU CHOW SCHOOL,114.17115744892385,港九潮州公学,4032,港九潮州公學,bus,港九潮州公學,港九潮州公學,港九潮州公学,hktransit,HK & KLN CHIU CHOW SCHOOL,港九潮州公學,HK & KLN CHIU CHOW SCHOOL,HK & KLN CHIU CHOW SCHOOL,22.321766013549002
QUEEN ELIZABETH SCHOOL,114.17078854047071,伊利沙伯中学,4033,伊利沙伯中學,bus,伊利沙伯中學,伊利沙伯中學,伊利沙伯中学,hktransit,QUEEN ELIZABETH SCHOOL,伊利沙伯中學,QUEEN ELIZABETH SCHOOL,QUEEN ELIZABETH SCHOOL,22.32351793483744
FA HUI PARK,114.1731082476574,花墟公园,4035,花墟公園,bus,花墟公園,花墟公園,花墟公园,hktransit,FA HUI PARK,花墟公園,FA HUI PARK,FA HUI PARK,22.32681416932489
CARITAS LODGE,114.17739851325463,明爱宾馆,4077,明愛賓館,bus,明愛賓館,明愛賓館,明爱宾馆,hktransit,CARITAS LODGE,明愛賓館,CARITAS LODGE,CARITAS LODGE,22.326985792206795
LA SALLE PRIMARY SCHOOL,114.18151407225152,喇沙小学,4055,喇沙小學,bus,喇沙小學,喇沙小學,喇沙小学,hktransit,LA SALLE PRIMARY SCHOOL,喇沙小學,LA SALLE PRIMARY SCHOOL,LA SALLE PRIMARY SCHOOL,22.327157306678327
ST. TERESA'S HOSPITAL,114.18562964129363,圣德肋撒医院,4037,聖德肋撒醫院,bus,聖德肋撒醫院,聖德肋撒醫院,圣德肋撒医院,hktransit,ST. TERESA'S HOSPITAL,聖德肋撒醫院,ST. TERESA'S HOSPITAL,ST. TERESA'S HOSPITAL,22.32732871665479
NGA TSIN WAI ROAD,114.186386816678,衙前围道,4038,衙前圍道,bus,衙前圍道,衙前圍道,衙前围道,hktransit,NGA TSIN WAI ROAD,衙前圍道,NGA TSIN WAI ROAD,NGA TSIN WAI ROAD,22.328313007557817
DUMBARTON ROAD,114.18648404719438,东宝庭道,4039,東寶庭道,bus,東寶庭道,東寶庭道,东宝庭道,hktransit,DUMBARTON ROAD,東寶庭道,DUMBARTON ROAD,DUMBARTON ROAD,22.330706106341246
RAINBOW PRIMARY SCHOOL,114.19000894691925,天虹小学,4002,天虹小學,bus,天虹小學,天虹小學,天虹小学,hktransit,RAINBOW PRIMARY SCHOOL,天虹小學,RAINBOW PRIMARY SCHOOL,RAINBOW PRIMARY SCHOOL,22.345064470455775
MA CHAI HANG RECREATION GROUND,114.18777610007265,马仔坑游乐场,4003,馬仔坑遊樂場,bus,馬仔坑遊樂場,馬仔坑遊樂場,马仔坑游乐场,hktransit,MA CHAI HANG RECREATION GROUND,馬仔坑遊樂場,MA CHAI HANG RECREATION GROUND,MA CHAI HANG RECREATION GROUND,22.34422479401763
MORSE PARK,114.1893871724963,摩士公园,4004,摩士公園,bus,摩士公園,摩士公園,摩士公园,hktransit,MORSE PARK,摩士公園,MORSE PARK,MORSE PARK,22.33971842308865
MORSE INDOOR GAME HALL,114.18990148490394,摩士室内体育馆,4005,摩士室內體育館,bus,摩士室內體育館,摩士室內體育館,摩士室内体育馆,hktransit,MORSE INDOOR GAME HALL,摩士室內體育館,MORSE INDOOR GAME HALL,MORSE INDOOR GAME HALL,22.33780390097317
WAI TUNG HOUSE,114.19143497052897,伟东楼,4006,偉東樓,bus,偉東樓,偉東樓,伟东楼,hktransit,WAI TUNG HOUSE,偉東樓,WAI TUNG HOUSE,WAI TUNG HOUSE,22.33532036182979
KOWLOON WALLED CITY PARK,114.18852260712072,九龙寨城公园,4040,九龍寨城公園,bus,九龍寨城公園,九龍寨城公園,九龙寨城公园,hktransit,KOWLOON WALLED CITY PARK,九龍寨城公園,KOWLOON WALLED CITY PARK,KOWLOON WALLED CITY PARK,22.332412751894804
MEI TUNG HOUSE,114.19007575303728,美东楼,8091,美東樓,bus,美東樓,美東樓,美东楼,hktransit,MEI TUNG HOUSE,美東樓,MEI TUNG HOUSE,MEI TUNG HOUSE,22.332909314289633
PRINCE EDWARD STATION,114.16986641456171,太子站,4016,太子站,bus,太子站,太子站,太子站,hktransit,PRINCE EDWARD STATION,太子站,PRINCE EDWARD STATION,PRINCE EDWARD STATION,22.324159069701
PRINCE EDWARD STATION,114.16936164909957,太子站,4034,太子站,bus,太子站,太子站,太子站,hktransit,PRINCE EDWARD STATION,太子站,PRINCE EDWARD STATION,PRINCE EDWARD STATION,22.324872463739286
NAM KOK ROAD,114.18958034148642,南角道,8099,南角道,bus,南角道,南角道,南角道,hktransit,NAM KOK ROAD,南角道,NAM KOK ROAD,NAM KOK ROAD,22.32895395929905
ST. GEORGE APARTMENTS,114.178155592121,圣佐治大厦,783,聖佐治大廈,bus,聖佐治大廈,聖佐治大廈,圣佐治大厦,hktransit,ST. GEORGE APARTMENTS,聖佐治大廈,ST. GEORGE APARTMENTS,ST. GEORGE APARTMENTS,22.3240598773817
EARL STREET,114.18045604145996,伯爵街,9121,伯爵街,bus,伯爵街,伯爵街,伯爵街,hktransit,EARL STREET,伯爵街,EARL STREET,EARL STREET,22.326317489266263
LA SALLE COLLEGE,114.18189267255386,喇沙书院,9144,喇沙書院,bus,喇沙書院,喇沙書院,喇沙书院,hktransit,LA SALLE COLLEGE,喇沙書院,LA SALLE COLLEGE,LA SALLE COLLEGE,22.32844866897137
COLLEGE ROAD,114.18486292931576,书院道,9147,書院道,bus,書院道,書院道,书院道,hktransit,COLLEGE ROAD,書院道,COLLEGE ROAD,COLLEGE ROAD,22.32912584280161
LION ROCK ROAD,114.18786227302314,狮子石道,8098,獅子石道,bus,獅子石道,獅子石道,狮子石道,hktransit,LION ROCK ROAD,獅子石道,LION ROCK ROAD,LION ROCK ROAD,22.32901729941855
"HONG TUNG HOUSE, TUNG TAU ESTATE",114.19356048817889,东头邨康东楼,13070,東頭邨康東樓,bus,東頭邨康東樓,東頭邨康東樓,东头邨康东楼,hktransit,"HONG TUNG HOUSE, TUNG TAU ESTATE",東頭邨康東樓,"HONG TUNG HOUSE, TUNG TAU ESTATE","HONG TUNG HOUSE, TUNG TAU ESTATE",22.332547768862902
TAI TUNG HOUSE,114.19430833863026,泰东楼,4186,泰東樓,bus,泰東樓,泰東樓,泰东楼,hktransit,TAI TUNG HOUSE,泰東樓,TAI TUNG HOUSE,TAI TUNG HOUSE,22.335925126024232
CHOI WAN BUS TERMINUS,114.21484789756462,彩云总站,1074,彩雲總站,bus,彩雲總站,彩雲總站,彩云总站,hktransit,CHOI WAN BUS TERMINUS,彩雲總站,CHOI WAN BUS TERMINUS,CHOI WAN BUS TERMINUS,22.333384017229662
TAN FUNG HOUSE,114.20759724521017,丹凤楼,1142,丹鳳樓,bus,丹鳳樓,丹鳳樓,丹凤楼,hktransit,TAN FUNG HOUSE,丹鳳樓,TAN FUNG HOUSE,TAN FUNG HOUSE,22.335336160522758
KAM WAN HOUSE,114.2045884198336,锦云楼,8337,錦雲樓,bus,錦雲樓,錦雲樓,锦云楼,hktransit,KAM WAN HOUSE,錦雲樓,KAM WAN HOUSE,KAM WAN HOUSE,22.337187971714087
CHI LIN NUNNERY,114.204064795827,志莲净苑,1415,志蓮淨苑,bus,志蓮淨苑,志蓮淨苑,志莲净苑,hktransit,CHI LIN NUNNERY,志蓮淨苑,CHI LIN NUNNERY,CHI LIN NUNNERY,22.34009590490028
LUNG POON COURT,114.20059002099269,龙蟠苑,1147,龍蟠苑,bus,龍蟠苑,龍蟠苑,龙蟠苑,hktransit,LUNG POON COURT,龍蟠苑,LUNG POON COURT,LUNG POON COURT,22.34289592821415
LUNG YAT HOUSE,114.19586189683451,龙逸楼,7025,龍逸樓,bus,龍逸樓,龍逸樓,龙逸楼,hktransit,LUNG YAT HOUSE,龍逸樓,LUNG YAT HOUSE,LUNG YAT HOUSE,22.339022437948778
LUNG WING HOUSE,114.19375542668335,龙荣楼,10244,龍榮樓,bus,龍榮樓,龍榮樓,龙荣楼,hktransit,LUNG WING HOUSE,龍榮樓,LUNG WING HOUSE,LUNG WING HOUSE,22.339185221960292
MORSE PARK NO. 2,114.19252240586671,摩士第二公园,8088,摩士第二公園,bus,摩士第二公園,摩士第二公園,摩士第二公园,hktransit,MORSE PARK NO. 2,摩士第二公園,MORSE PARK NO. 2,MORSE PARK NO. 2,22.337496628856943
DUMBARTON ROAD,114.18661997006369,东宝庭道,9131,東寶庭道,bus,東寶庭道,東寶庭道,东宝庭道,hktransit,DUMBARTON ROAD,東寶庭道,DUMBARTON ROAD,DUMBARTON ROAD,22.33111247436241
COLLEGE ROAD,114.18497940219571,书院道,9146,書院道,bus,書院道,書院道,书院道,hktransit,COLLEGE ROAD,書院道,COLLEGE ROAD,COLLEGE ROAD,22.3290084394
OXFORD ROAD,114.18131033251936,牛津道,9135,牛津道,bus,牛津道,牛津道,牛津道,hktransit,OXFORD ROAD,牛津道,OXFORD ROAD,OXFORD ROAD,22.330191588716673
KOWLOON TONG CLUB,114.17874775176821,九龙塘会,4225,九龍塘會,bus,九龍塘會,九龍塘會,九龙塘会,hktransit,KOWLOON TONG CLUB,九龍塘會,KOWLOON TONG CLUB,KOWLOON TONG CLUB,22.329613681980568
KOWLOON HOSPITAL,114.1783885303745,九龙医院,4226,九龍醫院,bus,九龍醫院,九龍醫院,九龙医院,hktransit,KOWLOON HOSPITAL,九龍醫院,KOWLOON HOSPITAL,KOWLOON HOSPITAL,22.322912990389195
MAN KEE MANSION,114.17668024023375,万基大厦,4227,萬基大廈,bus,萬基大廈,萬基大廈,万基大厦,hktransit,MAN KEE MANSION,萬基大廈,MAN KEE MANSION,MAN KEE MANSION,22.31996902475124
HO MAN TIN STREET,114.17495260156532,何文田街,4228,何文田街,bus,何文田街,何文田街,何文田街,hktransit,HO MAN TIN STREET,何文田街,HO MAN TIN STREET,HO MAN TIN STREET,22.317666212199715
KWONG WAH HOSPITAL,114.17268152469572,广华医院,4229,廣華醫院,bus,廣華醫院,廣華醫院,广华医院,hktransit,KWONG WAH HOSPITAL,廣華醫院,KWONG WAH HOSPITAL,KWONG WAH HOSPITAL,22.31455964426324
YAU MA TEI FIRE STATION,114.17171100835586,油麻地消防局,4230,油麻地消防局,bus,油麻地消防局,油麻地消防局,油麻地消防局,hktransit,YAU MA TEI FIRE STATION,油麻地消防局,YAU MA TEI FIRE STATION,YAU MA TEI FIRE STATION,22.313268240662012
SHANGHAI STREET,114.16909054607953,上海街,13129,上海街,bus,上海街,上海街,上海街,hktransit,SHANGHAI STREET,上海街,SHANGHAI STREET,SHANGHAI STREET,22.312635994677507
CHARMING GARDEN,114.16427650290365,富荣花园,10237,富榮花園,bus,富榮花園,富榮花園,富荣花园,hktransit,CHARMING GARDEN,富榮花園,CHARMING GARDEN,CHARMING GARDEN,22.3139180388603
PARK AVENUE,114.16371335850728,柏景湾,9040,柏景灣,bus,柏景灣,柏景灣,柏景湾,hktransit,PARK AVENUE,柏景灣,PARK AVENUE,PARK AVENUE,22.316274980635153
FOO KWAI STREET,114.16192723065875,富贵街,9049,富貴街,bus,富貴街,富貴街,富贵街,hktransit,FOO KWAI STREET,富貴街,FOO KWAI STREET,FOO KWAI STREET,22.318812423871133
BEECH STREET,114.16289773740007,榉树街,9089,櫸樹街,bus,櫸樹街,櫸樹街,榉树街,hktransit,BEECH STREET,櫸樹街,BEECH STREET,BEECH STREET,22.319679447226527
FUK TSUN STREET,114.16537269650681,福全街,9081,福全街,bus,福全街,福全街,福全街,hktransit,FUK TSUN STREET,福全街,FUK TSUN STREET,FUK TSUN STREET,22.320510455606932
MONG KOK STATION,114.17080811688515,旺角站,12367,旺角站,bus,旺角站,旺角站,旺角站,hktransit,MONG KOK STATION,旺角站,MONG KOK STATION,MONG KOK STATION,22.319697995170095
CLP POWER ARGYLE STREET,114.17574845843136,亚皆老街中电,7050,亞皆老街中電,bus,亞皆老街中電,亞皆老街中電,亚皆老街中电,hktransit,CLP POWER ARGYLE STREET,亞皆老街中電,CLP POWER ARGYLE STREET,CLP POWER ARGYLE STREET,22.32061922394156
TAK KU LING ROAD,114.19149265791893,打鼓岭道,8094,打鼓嶺道,bus,打鼓嶺道,打鼓嶺道,打鼓岭道,hktransit,TAK KU LING ROAD,打鼓嶺道,TAK KU LING ROAD,TAK KU LING ROAD,22.33001037582552
WONG TAI SIN POLICE STATION,114.19723065476421,黄大仙警署,1387,黃大仙警署,bus,黃大仙警署,黃大仙警署,黄大仙警署,hktransit,WONG TAI SIN POLICE STATION,黃大仙警署,WONG TAI SIN POLICE STATION,WONG TAI SIN POLICE STATION,22.339193852282197
FUNG TAK SHOPPING CENTRE,114.20006585282172,凤德商场,1167,鳳德商場,bus,鳳德商場,鳳德商場,凤德商场,hktransit,FUNG TAK SHOPPING CENTRE,鳳德商場,FUNG TAK SHOPPING CENTRE,FUNG TAK SHOPPING CENTRE,22.3431488601321
CHI LIN NUNNERY,114.20444337197247,志莲净苑,995,志蓮淨苑,bus,志蓮淨苑,志蓮淨苑,志莲净苑,hktransit,CHI LIN NUNNERY,志蓮淨苑,CHI LIN NUNNERY,CHI LIN NUNNERY,22.34003262683104
NGAU CHI WAN VILLAGE,114.20761682982426,牛池湾村,12918,牛池灣村,bus,牛池灣村,牛池灣村,牛池湾村,hktransit,NGAU CHI WAN VILLAGE,牛池灣村,NGAU CHI WAN VILLAGE,NGAU CHI WAN VILLAGE,22.336112786298894
CHOI WAN ST. JOSEPH'S PRIMARY SCHOOL,114.21180014528512,彩云圣若瑟小学,8323,彩雲聖若瑟小學,bus,彩雲聖若瑟小學,彩雲聖若瑟小學,彩云圣若瑟小学,hktransit,CHOI WAN ST. JOSEPH'S PRIMARY SCHOOL,彩雲聖若瑟小學,CHOI WAN ST. JOSEPH'S PRIMARY SCHOOL,CHOI WAN ST. JOSEPH'S PRIMARY SCHOOL,22.334287761245808
PAK HUNG HOUSE,114.21535243494259,白虹楼,1091,白虹樓,bus,白虹樓,白虹樓,白虹楼,hktransit,PAK HUNG HOUSE,白虹樓,PAK HUNG HOUSE,PAK HUNG HOUSE,22.332571146063497
KOON YAT HOUSE,114.21652719462006,观日楼,1073,觀日樓,bus,觀日樓,觀日樓,观日楼,hktransit,KOON YAT HOUSE,觀日樓,KOON YAT HOUSE,KOON YAT HOUSE,22.333374584024916
WONG CHUNG MING SECONDARY SCHOOL,114.19436638032948,王仲铭中学,8085,王仲銘中學,bus,王仲銘中學,王仲銘中學,王仲铭中学,hktransit,WONG CHUNG MING SECONDARY SCHOOL,王仲銘中學,WONG CHUNG MING SECONDARY SCHOOL,WONG CHUNG MING SECONDARY SCHOOL,22.334317677087643
CHOI HUNG STATION,114.20997516578555,彩虹站,1075,彩虹站,bus,彩虹站,彩虹站,彩虹站,hktransit,CHOI HUNG STATION,彩虹站,CHOI HUNG STATION,CHOI HUNG STATION,22.33401722744839
LANCASHIRE ROAD,114.18195095859305,兰开夏道,9142,蘭開夏道,bus,蘭開夏道,蘭開夏道,兰开夏道,hktransit,LANCASHIRE ROAD,蘭開夏道,LANCASHIRE ROAD,LANCASHIRE ROAD,22.329721979443374
"SHANTUNG STREET MONG KOK/<br/>Shantung Street, Nathan Road",114.16968234672873,"旺角山东街/<br/>山东街, 弥敦道",9054,"旺角山東街/<br/>山東街, 彌敦道",bus,"旺角山東街/<br/>山東街, 彌敦道","旺角山東街/<br/>山東街, 彌敦道","旺角山东街/<br/>山东街, 弥敦道",hktransit,"SHANTUNG STREET MONG KOK/<br/>Shantung Street, Nathan Road","旺角山東街/<br/>山東街, 彌敦道","SHANTUNG STREET MONG KOK/<br/>Shantung Street, Nathan Road","SHANTUNG STREET MONG KOK/<br/>Shantung Street, Nathan Road",22.317250658094082
"MAPLE STREET SHAM SHUI PO/<br/>Maple Street, Cheung Sha Wan Road",114.16551767422916,"深水埗枫树街/<br/>枫树街, 长沙湾道",9218,"深水埗楓樹街/<br/>楓樹街, 長沙灣道",bus,"深水埗楓樹街/<br/>楓樹街, 長沙灣道","深水埗楓樹街/<br/>楓樹街, 長沙灣道","深水埗枫树街/<br/>枫树街, 长沙湾道",hktransit,"MAPLE STREET SHAM SHUI PO/<br/>Maple Street, Cheung Sha Wan Road","深水埗楓樹街/<br/>楓樹街, 長沙灣道","MAPLE STREET SHAM SHUI PO/<br/>Maple Street, Cheung Sha Wan Road","MAPLE STREET SHAM SHUI PO/<br/>Maple Street, Cheung Sha Wan Road",22.328114221590347
"PEI HO STREET SHAM SHUI PO/<br/>Pei Ho Street, Cheung Sha Wan Road",114.16233366408802,"深水埗北河街/<br/>北河街, 长沙湾道",756,"深水埗北河街/<br/>北河街, 長沙灣道",bus,"深水埗北河街/<br/>北河街, 長沙灣道","深水埗北河街/<br/>北河街, 長沙灣道","深水埗北河街/<br/>北河街, 长沙湾道",hktransit,"PEI HO STREET SHAM SHUI PO/<br/>Pei Ho Street, Cheung Sha Wan Road","深水埗北河街/<br/>北河街, 長沙灣道","PEI HO STREET SHAM SHUI PO/<br/>Pei Ho Street, Cheung Sha Wan Road","PEI HO STREET SHAM SHUI PO/<br/>Pei Ho Street, Cheung Sha Wan Road",22.330579317298987
CROSS HARBOUR TUNNEL/<br/>Cross Harbour Tunnel Toll Plaza,114.18095038717954,海底隧道/<br/>海底隧道收费广场,9014,海底隧道/<br/>海底隧道收費廣場,bus,海底隧道/<br/>海底隧道收費廣場,海底隧道/<br/>海底隧道收費廣場,海底隧道/<br/>海底隧道收费广场,hktransit,CROSS HARBOUR TUNNEL/<br/>Cross Harbour Tunnel Toll Plaza,海底隧道/<br/>海底隧道收費廣場,CROSS HARBOUR TUNNEL/<br/>Cross Harbour Tunnel Toll Plaza,CROSS HARBOUR TUNNEL/<br/>Cross Harbour Tunnel Toll Plaza,22.303045622043605
"SHIPYARD LANE/<br/>Shipyard Lane, King's Road",114.21412638359922,"船坞里/<br/>船坞里, 英皇道",148,"船塢里/<br/>船塢里, 英皇道",bus,"船塢里/<br/>船塢里, 英皇道","船塢里/<br/>船塢里, 英皇道","船坞里/<br/>船坞里, 英皇道",hktransit,"SHIPYARD LANE/<br/>Shipyard Lane, King's Road","船塢里/<br/>船塢里, 英皇道","SHIPYARD LANE/<br/>Shipyard Lane, King's Road","SHIPYARD LANE/<br/>Shipyard Lane, King's Road",22.284790501137916
"CITYPLAZA/<br/>Cityplaza, King's Road",114.21753249561583,"太古城中心/<br/>太古城中心, 英皇道",180,"太古城中心/<br/>太古城中心, 英皇道",bus,"太古城中心/<br/>太古城中心, 英皇道","太古城中心/<br/>太古城中心, 英皇道","太古城中心/<br/>太古城中心, 英皇道",hktransit,"CITYPLAZA/<br/>Cityplaza, King's Road","太古城中心/<br/>太古城中心, 英皇道","CITYPLAZA/<br/>Cityplaza, King's Road","CITYPLAZA/<br/>Cityplaza, King's Road",22.285331520705487
"TAI ON BUILDING/<br/>Tai On Building, Shau Kei Wan Road",114.2216750684401,"太安楼/<br/>太安楼, 筲箕湾道",151,"太安樓/<br/>太安樓, 筲箕灣道",bus,"太安樓/<br/>太安樓, 筲箕灣道","太安樓/<br/>太安樓, 筲箕灣道","太安楼/<br/>太安楼, 筲箕湾道",hktransit,"TAI ON BUILDING/<br/>Tai On Building, Shau Kei Wan Road","太安樓/<br/>太安樓, 筲箕灣道","TAI ON BUILDING/<br/>Tai On Building, Shau Kei Wan Road","TAI ON BUILDING/<br/>Tai On Building, Shau Kei Wan Road",22.28260317830105
"HOI AN STREET/<br/>Hoi An Street, Shau Kei Wan Road",114.22360545507021,"海晏街/<br/>海晏街, 筲箕湾道",152,"海晏街/<br/>海晏街, 筲箕灣道",bus,"海晏街/<br/>海晏街, 筲箕灣道","海晏街/<br/>海晏街, 筲箕灣道","海晏街/<br/>海晏街, 筲箕湾道",hktransit,"HOI AN STREET/<br/>Hoi An Street, Shau Kei Wan Road","海晏街/<br/>海晏街, 筲箕灣道","HOI AN STREET/<br/>Hoi An Street, Shau Kei Wan Road","HOI AN STREET/<br/>Hoi An Street, Shau Kei Wan Road",22.280814568005198
"ALDRICH BAY ROAD/<br/>Aldrich Bay Road, Shau Kei Wan Road",114.22532276798998,"爱秩序湾道/<br/>爱秩序湾道, 筲箕湾道",3001,"愛秩序灣道/<br/>愛秩序灣道, 筲箕灣道",bus,"愛秩序灣道/<br/>愛秩序灣道, 筲箕灣道","愛秩序灣道/<br/>愛秩序灣道, 筲箕灣道","爱秩序湾道/<br/>爱秩序湾道, 筲箕湾道",hktransit,"ALDRICH BAY ROAD/<br/>Aldrich Bay Road, Shau Kei Wan Road","愛秩序灣道/<br/>愛秩序灣道, 筲箕灣道","ALDRICH BAY ROAD/<br/>Aldrich Bay Road, Shau Kei Wan Road","ALDRICH BAY ROAD/<br/>Aldrich Bay Road, Shau Kei Wan Road",22.280317379212917
MEI FOO BUS TERMINUS/<br/>Mei Foo,114.1401811752938,美孚巴士总站/<br/>美孚,739,美孚巴士總站/<br/>美孚,bus,美孚巴士總站/<br/>美孚,美孚巴士總站/<br/>美孚,美孚巴士总站/<br/>美孚,hktransit,MEI FOO BUS TERMINUS/<br/>Mei Foo,美孚巴士總站/<br/>美孚,MEI FOO BUS TERMINUS/<br/>Mei Foo,MEI FOO BUS TERMINUS/<br/>Mei Foo,22.337104929162198
"DUNDAS STREET MONG KOK/<br/>Dundas Street, Nathan Road",114.17017745652991,"旺角登打士街/<br/>登打士街, 弥敦道",9052,"旺角登打士街/<br/>登打士街, 彌敦道",bus,"旺角登打士街/<br/>登打士街, 彌敦道","旺角登打士街/<br/>登打士街, 彌敦道","旺角登打士街/<br/>登打士街, 弥敦道",hktransit,"DUNDAS STREET MONG KOK/<br/>Dundas Street, Nathan Road","旺角登打士街/<br/>登打士街, 彌敦道","DUNDAS STREET MONG KOK/<br/>Dundas Street, Nathan Road","DUNDAS STREET MONG KOK/<br/>Dundas Street, Nathan Road",22.314866601263898
"OI YIN STREET/<br/>Aldrich Garden, Oi Yin Street",114.22830188545889,"爱贤街/<br/>爱蝶湾, 爱贤街",747,"愛賢街/<br/>愛蝶灣, 愛賢街",bus,"愛賢街/<br/>愛蝶灣, 愛賢街","愛賢街/<br/>愛蝶灣, 愛賢街","爱贤街/<br/>爱蝶湾, 爱贤街",hktransit,"OI YIN STREET/<br/>Aldrich Garden, Oi Yin Street","愛賢街/<br/>愛蝶灣, 愛賢街","OI YIN STREET/<br/>Aldrich Garden, Oi Yin Street","OI YIN STREET/<br/>Aldrich Garden, Oi Yin Street",22.280903453372233
"PERFECT MOUNT GARDENS/<br/>Perfect Mount Gardens, Tung Hei Road",114.22878635012606,"峻峰花园/<br/>峻峰花园, 东喜道",12458,"峻峰花園/<br/>峻峰花園, 東喜道",bus,"峻峰花園/<br/>峻峰花園, 東喜道","峻峰花園/<br/>峻峰花園, 東喜道","峻峰花园/<br/>峻峰花园, 东喜道",hktransit,"PERFECT MOUNT GARDENS/<br/>Perfect Mount Gardens, Tung Hei Road","峻峰花園/<br/>峻峰花園, 東喜道","PERFECT MOUNT GARDENS/<br/>Perfect Mount Gardens, Tung Hei Road","PERFECT MOUNT GARDENS/<br/>Perfect Mount Gardens, Tung Hei Road",22.279006865555296
"SUN SHING STREET/<br/>Sun Sing Street, Shau Kei Wan Road",114.22607915153274,"新成街/<br/>新成街, 筲箕湾道",101,"新成街/<br/>新成街, 筲箕灣道",bus,"新成街/<br/>新成街, 筲箕灣道","新成街/<br/>新成街, 筲箕灣道","新成街/<br/>新成街, 筲箕湾道",hktransit,"SUN SHING STREET/<br/>Sun Sing Street, Shau Kei Wan Road","新成街/<br/>新成街, 筲箕灣道","SUN SHING STREET/<br/>Sun Sing Street, Shau Kei Wan Road","SUN SHING STREET/<br/>Sun Sing Street, Shau Kei Wan Road",22.27897158672334
"KAM HONG STREET/<br/>Kam Hong Street, King's Road",114.201221746756,"琴行街/<br/>琴行街, 英皇道",112,"琴行街/<br/>琴行街, 英皇道",bus,"琴行街/<br/>琴行街, 英皇道","琴行街/<br/>琴行街, 英皇道","琴行街/<br/>琴行街, 英皇道",hktransit,"KAM HONG STREET/<br/>Kam Hong Street, King's Road","琴行街/<br/>琴行街, 英皇道","KAM HONG STREET/<br/>Kam Hong Street, King's Road","KAM HONG STREET/<br/>Kam Hong Street, King's Road",22.291249852688253
"LAI CHI KOK STATION/<br/>Lai Chi Kok Station, Cheung Sha Wan Road",114.14807305025906,"荔枝角站/<br/>荔枝角站, 长沙湾道",956,"荔枝角站/<br/>荔枝角站, 長沙灣道",bus,"荔枝角站/<br/>荔枝角站, 長沙灣道","荔枝角站/<br/>荔枝角站, 長沙灣道","荔枝角站/<br/>荔枝角站, 长沙湾道",hktransit,"LAI CHI KOK STATION/<br/>Lai Chi Kok Station, Cheung Sha Wan Road","荔枝角站/<br/>荔枝角站, 長沙灣道","LAI CHI KOK STATION/<br/>Lai Chi Kok Station, Cheung Sha Wan Road","LAI CHI KOK STATION/<br/>Lai Chi Kok Station, Cheung Sha Wan Road",22.337458714310742
"CHEUNG SHA WAN STATION/<br/>Cheung Sha Wan Station, Cheung Sha Wan Road",114.15491675836871,"长沙湾站/<br/>长沙湾站, 长沙湾道",9225,"長沙灣站/<br/>長沙灣站, 長沙灣道",bus,"長沙灣站/<br/>長沙灣站, 長沙灣道","長沙灣站/<br/>長沙灣站, 長沙灣道","长沙湾站/<br/>长沙湾站, 长沙湾道",hktransit,"CHEUNG SHA WAN STATION/<br/>Cheung Sha Wan Station, Cheung Sha Wan Road","長沙灣站/<br/>長沙灣站, 長沙灣道","CHEUNG SHA WAN STATION/<br/>Cheung Sha Wan Station, Cheung Sha Wan Road","CHEUNG SHA WAN STATION/<br/>Cheung Sha Wan Station, Cheung Sha Wan Road",22.336692185569184
"HOI AN STREET/<br/>Hoi An Street, Shau Kei Wan Road",114.22345017232136,"海晏街/<br/>海晏街, 筲箕湾道",102,"海晏街/<br/>海晏街, 筲箕灣道",bus,"海晏街/<br/>海晏街, 筲箕灣道","海晏街/<br/>海晏街, 筲箕灣道","海晏街/<br/>海晏街, 筲箕湾道",hktransit,"HOI AN STREET/<br/>Hoi An Street, Shau Kei Wan Road","海晏街/<br/>海晏街, 筲箕灣道","HOI AN STREET/<br/>Hoi An Street, Shau Kei Wan Road","HOI AN STREET/<br/>Hoi An Street, Shau Kei Wan Road",22.280724306315147
"CHEUNG LAI STREET CHEUNG SHA WAN/<br/>Cheung Lai Street, Cheung Sha Wan Road",114.14737424635057,"长沙湾长荔街/<br/>长荔街, 长沙湾道",760,"長沙灣長荔街/<br/>長荔街, 長沙灣道",bus,"長沙灣長荔街/<br/>長荔街, 長沙灣道","長沙灣長荔街/<br/>長荔街, 長沙灣道","长沙湾长荔街/<br/>长荔街, 长沙湾道",hktransit,"CHEUNG LAI STREET CHEUNG SHA WAN/<br/>Cheung Lai Street, Cheung Sha Wan Road","長沙灣長荔街/<br/>長荔街, 長沙灣道","CHEUNG LAI STREET CHEUNG SHA WAN/<br/>Cheung Lai Street, Cheung Sha Wan Road","CHEUNG LAI STREET CHEUNG SHA WAN/<br/>Cheung Lai Street, Cheung Sha Wan Road",22.33690772378412
"CHEUNG WAH STREET/<br/>Cheung Wah Street, Cheung Sha Wan Road",114.15224694465111,"昌华街/<br/>昌华街, 长沙湾道",740,"昌華街/<br/>昌華街, 長沙灣道",bus,"昌華街/<br/>昌華街, 長沙灣道","昌華街/<br/>昌華街, 長沙灣道","昌华街/<br/>昌华街, 长沙湾道",hktransit,"CHEUNG WAH STREET/<br/>Cheung Wah Street, Cheung Sha Wan Road","昌華街/<br/>昌華街, 長沙灣道","CHEUNG WAH STREET/<br/>Cheung Wah Street, Cheung Sha Wan Road","CHEUNG WAH STREET/<br/>Cheung Wah Street, Cheung Sha Wan Road",22.33865143696439
"TONKIN STREET CHEUNG SHA WAN/<br/>Tonkin Street, Cheung Sha Wan Road",114.15689724711197,"长沙湾东京街/<br/>东京街, 长沙湾道",9226,"長沙灣東京街/<br/>東京街, 長沙灣道",bus,"長沙灣東京街/<br/>東京街, 長沙灣道","長沙灣東京街/<br/>東京街, 長沙灣道","长沙湾东京街/<br/>东京街, 长沙湾道",hktransit,"TONKIN STREET CHEUNG SHA WAN/<br/>Tonkin Street, Cheung Sha Wan Road","長沙灣東京街/<br/>東京街, 長沙灣道","TONKIN STREET CHEUNG SHA WAN/<br/>Tonkin Street, Cheung Sha Wan Road","TONKIN STREET CHEUNG SHA WAN/<br/>Tonkin Street, Cheung Sha Wan Road",22.33509402940621
"YEN CHOW STREET SHAM SHUI PO/<br/>Yen Chow Street, Cheung Sha Wan Road",114.16039210832105,"深水埗钦州街/<br/>钦州街, 长沙湾道",743,"深水埗欽州街/<br/>欽州街, 長沙灣道",bus,"深水埗欽州街/<br/>欽州街, 長沙灣道","深水埗欽州街/<br/>欽州街, 長沙灣道","深水埗钦州街/<br/>钦州街, 长沙湾道",hktransit,"YEN CHOW STREET SHAM SHUI PO/<br/>Yen Chow Street, Cheung Sha Wan Road","深水埗欽州街/<br/>欽州街, 長沙灣道","YEN CHOW STREET SHAM SHUI PO/<br/>Yen Chow Street, Cheung Sha Wan Road","YEN CHOW STREET SHAM SHUI PO/<br/>Yen Chow Street, Cheung Sha Wan Road",22.33234912583319
"PEI HO STREET SHAM SHUI PO/<br/>Pei Ho Street, Cheung Sha Wan Road",114.16236276009838,"深水埗北河街/<br/>北河街, 长沙湾道",9217,"深水埗北河街/<br/>北河街, 長沙灣道",bus,"深水埗北河街/<br/>北河街, 長沙灣道","深水埗北河街/<br/>北河街, 長沙灣道","深水埗北河街/<br/>北河街, 长沙湾道",hktransit,"PEI HO STREET SHAM SHUI PO/<br/>Pei Ho Street, Cheung Sha Wan Road","深水埗北河街/<br/>北河街, 長沙灣道","PEI HO STREET SHAM SHUI PO/<br/>Pei Ho Street, Cheung Sha Wan Road","PEI HO STREET SHAM SHUI PO/<br/>Pei Ho Street, Cheung Sha Wan Road",22.330814115022072
"MAPLE STREET SHAM SHUI PO/<br/>Maple Street, Cheung Sha Wan Road",114.16579916053944,"深水埗枫树街/<br/>枫树街, 长沙湾道",9219,"深水埗楓樹街/<br/>楓樹街, 長沙灣道",bus,"深水埗楓樹街/<br/>楓樹街, 長沙灣道","深水埗楓樹街/<br/>楓樹街, 長沙灣道","深水埗枫树街/<br/>枫树街, 长沙湾道",hktransit,"MAPLE STREET SHAM SHUI PO/<br/>Maple Street, Cheung Sha Wan Road","深水埗楓樹街/<br/>楓樹街, 長沙灣道","MAPLE STREET SHAM SHUI PO/<br/>Maple Street, Cheung Sha Wan Road","MAPLE STREET SHAM SHUI PO/<br/>Maple Street, Cheung Sha Wan Road",22.328168424499353
"PRINCE EDWARD STATION/<br/>Prince Edward Station, Nathan Road",114.16814830205497,"太子站/<br/>太子站, 弥敦道",211,"太子站/<br/>太子站, 彌敦道",bus,"太子站/<br/>太子站, 彌敦道","太子站/<br/>太子站, 彌敦道","太子站/<br/>太子站, 弥敦道",hktransit,"PRINCE EDWARD STATION/<br/>Prince Edward Station, Nathan Road","太子站/<br/>太子站, 彌敦道","PRINCE EDWARD STATION/<br/>Prince Edward Station, Nathan Road","PRINCE EDWARD STATION/<br/>Prince Edward Station, Nathan Road",22.3257393397259
"NULLAH ROAD MONG KOK/<br/>Allied Plaza, Nathan Road",114.16863375903333,"旺角水渠道/<br/>联合广场, 弥敦道",212,"旺角水渠道/<br/>聯合廣場, 彌敦道",bus,"旺角水渠道/<br/>聯合廣場, 彌敦道","旺角水渠道/<br/>聯合廣場, 彌敦道","旺角水渠道/<br/>联合广场, 弥敦道",hktransit,"NULLAH ROAD MONG KOK/<br/>Allied Plaza, Nathan Road","旺角水渠道/<br/>聯合廣場, 彌敦道","NULLAH ROAD MONG KOK/<br/>Allied Plaza, Nathan Road","NULLAH ROAD MONG KOK/<br/>Allied Plaza, Nathan Road",22.323400442545243
"DUNDAS STREET MONG KOK/<br/>Dundas Street, Nathan Road",114.17036185732559,"旺角登打士街/<br/>登打士街, 弥敦道",744,"旺角登打士街/<br/>登打士街, 彌敦道",bus,"旺角登打士街/<br/>登打士街, 彌敦道","旺角登打士街/<br/>登打士街, 彌敦道","旺角登打士街/<br/>登打士街, 弥敦道",hktransit,"DUNDAS STREET MONG KOK/<br/>Dundas Street, Nathan Road","旺角登打士街/<br/>登打士街, 彌敦道","DUNDAS STREET MONG KOK/<br/>Dundas Street, Nathan Road","DUNDAS STREET MONG KOK/<br/>Dundas Street, Nathan Road",22.315011098312876
"MAN MING LANE YAU MA TEI/<br/>Man Ming Lane, Nathan Road",114.17090549080186,"油麻地文明里/<br/>文明里, 弥敦道",745,"油麻地文明里/<br/>文明里, 彌敦道",bus,"油麻地文明里/<br/>文明里, 彌敦道","油麻地文明里/<br/>文明里, 彌敦道","油麻地文明里/<br/>文明里, 弥敦道",hktransit,"MAN MING LANE YAU MA TEI/<br/>Man Ming Lane, Nathan Road","油麻地文明里/<br/>文明里, 彌敦道","MAN MING LANE YAU MA TEI/<br/>Man Ming Lane, Nathan Road","MAN MING LANE YAU MA TEI/<br/>Man Ming Lane, Nathan Road",22.312256785839804
"LABOUR TRIBUNAL/<br/>Labour Tribunal, Gascoigne Road",114.17257496081781,"劳资审裁处/<br/>劳资审裁处, 加士居道",9012,"勞資審裁處/<br/>勞資審裁處, 加士居道",bus,"勞資審裁處/<br/>勞資審裁處, 加士居道","勞資審裁處/<br/>勞資審裁處, 加士居道","劳资审裁处/<br/>劳资审裁处, 加士居道",hktransit,"LABOUR TRIBUNAL/<br/>Labour Tribunal, Gascoigne Road","勞資審裁處/<br/>勞資審裁處, 加士居道","LABOUR TRIBUNAL/<br/>Labour Tribunal, Gascoigne Road","LABOUR TRIBUNAL/<br/>Labour Tribunal, Gascoigne Road",22.30802148462376
"HONG KONG POLYTECHNIC UNIVERSITY PHASE 8/<br/>Hong Kong Polytechnic University Phase 8, Chatham Road North",114.18004791521219,"香港理工大学第八期/<br/>香港理工大学第八期, 漆咸道北",775,"香港理工大學第八期/<br/>香港理工大學第八期, 漆咸道北",bus,"香港理工大學第八期/<br/>香港理工大學第八期, 漆咸道北","香港理工大學第八期/<br/>香港理工大學第八期, 漆咸道北","香港理工大学第八期/<br/>香港理工大学第八期, 漆咸道北",hktransit,"HONG KONG POLYTECHNIC UNIVERSITY PHASE 8/<br/>Hong Kong Polytechnic University Phase 8, Chatham Road North","香港理工大學第八期/<br/>香港理工大學第八期, 漆咸道北","HONG KONG POLYTECHNIC UNIVERSITY PHASE 8/<br/>Hong Kong Polytechnic University Phase 8, Chatham Road North","HONG KONG POLYTECHNIC UNIVERSITY PHASE 8/<br/>Hong Kong Polytechnic University Phase 8, Chatham Road North",22.306450182699553
"NORTH POINT FIRE STATION/<br/>North Point Fire Station, Java Road",114.20809237972772,"北角消防局/<br/>北角消防局, 渣华道",3274,"北角消防局/<br/>北角消防局, 渣華道",bus,"北角消防局/<br/>北角消防局, 渣華道","北角消防局/<br/>北角消防局, 渣華道","北角消防局/<br/>北角消防局, 渣华道",hktransit,"NORTH POINT FIRE STATION/<br/>North Point Fire Station, Java Road","北角消防局/<br/>北角消防局, 渣華道","NORTH POINT FIRE STATION/<br/>North Point Fire Station, Java Road","NORTH POINT FIRE STATION/<br/>North Point Fire Station, Java Road",22.292079492092306
"NORTH POINT GOVERNMENT PRIMARY SCHOOL/<br/>North Point Government Primary School, King's Road",114.2098383972697,"北角官立小学/<br/>北角官立小学, 英皇道",146,"北角官立小學/<br/>北角官立小學, 英皇道",bus,"北角官立小學/<br/>北角官立小學, 英皇道","北角官立小學/<br/>北角官立小學, 英皇道","北角官立小学/<br/>北角官立小学, 英皇道",hktransit,"NORTH POINT GOVERNMENT PRIMARY SCHOOL/<br/>North Point Government Primary School, King's Road","北角官立小學/<br/>北角官立小學, 英皇道","NORTH POINT GOVERNMENT PRIMARY SCHOOL/<br/>North Point Government Primary School, King's Road","NORTH POINT GOVERNMENT PRIMARY SCHOOL/<br/>North Point Government Primary School, King's Road",22.289026794942238
"SAI WAN HO CIVIC CENTRE/<br/>Sai Wan Ho Civic Centre, Shau Kei Wan Road",114.22207262990163,"西湾河文娱中心/<br/>西湾河文娱中心, 筲箕湾道",173,"西灣河文娛中心/<br/>西灣河文娛中心, 筲箕灣道",bus,"西灣河文娛中心/<br/>西灣河文娛中心, 筲箕灣道","西灣河文娛中心/<br/>西灣河文娛中心, 筲箕灣道","西湾河文娱中心/<br/>西湾河文娱中心, 筲箕湾道",hktransit,"SAI WAN HO CIVIC CENTRE/<br/>Sai Wan Ho Civic Centre, Shau Kei Wan Road","西灣河文娛中心/<br/>西灣河文娛中心, 筲箕灣道","SAI WAN HO CIVIC CENTRE/<br/>Sai Wan Ho Civic Centre, Shau Kei Wan Road","SAI WAN HO CIVIC CENTRE/<br/>Sai Wan Ho Civic Centre, Shau Kei Wan Road",22.28173612714106
"TAI FOO STREET/<br/>Tai Foo Street, Shau Kei Wan Road",114.22094749294926,"太富街/<br/>太富街, 筲箕湾道",748,"太富街/<br/>太富街, 筲箕灣道",bus,"太富街/<br/>太富街, 筲箕灣道","太富街/<br/>太富街, 筲箕灣道","太富街/<br/>太富街, 筲箕湾道",hktransit,"TAI FOO STREET/<br/>Tai Foo Street, Shau Kei Wan Road","太富街/<br/>太富街, 筲箕灣道","TAI FOO STREET/<br/>Tai Foo Street, Shau Kei Wan Road","TAI FOO STREET/<br/>Tai Foo Street, Shau Kei Wan Road",22.283181338174163
"KORNHILL PLAZA/<br/>Kornhill Plaza, Kornhill Road",114.2168044832749,"康怡广场/<br/>康怡广场, 康山道",104,"康怡廣場/<br/>康怡廣場, 康山道",bus,"康怡廣場/<br/>康怡廣場, 康山道","康怡廣場/<br/>康怡廣場, 康山道","康怡广场/<br/>康怡广场, 康山道",hktransit,"KORNHILL PLAZA/<br/>Kornhill Plaza, Kornhill Road","康怡廣場/<br/>康怡廣場, 康山道","KORNHILL PLAZA/<br/>Kornhill Plaza, Kornhill Road","KORNHILL PLAZA/<br/>Kornhill Plaza, Kornhill Road",22.284482822272736
"BO FUNG GARDENS/<br/>Bo Fung Gardens, King's Road",114.21440773179383,"宝峰园/<br/>宝峰园, 英皇道",105,"寶峰園/<br/>寶峰園, 英皇道",bus,"寶峰園/<br/>寶峰園, 英皇道","寶峰園/<br/>寶峰園, 英皇道","宝峰园/<br/>宝峰园, 英皇道",hktransit,"BO FUNG GARDENS/<br/>Bo Fung Gardens, King's Road","寶峰園/<br/>寶峰園, 英皇道","BO FUNG GARDENS/<br/>Bo Fung Gardens, King's Road","BO FUNG GARDENS/<br/>Bo Fung Gardens, King's Road",22.28458273172427
"SUNWAY GARDENS/<br/>Sunway Gardens, King's Road",114.21119604040551,"新威园/<br/>新威园, 英皇道",749,"新威園/<br/>新威園, 英皇道",bus,"新威園/<br/>新威園, 英皇道","新威園/<br/>新威園, 英皇道","新威园/<br/>新威园, 英皇道",hktransit,"SUNWAY GARDENS/<br/>Sunway Gardens, King's Road","新威園/<br/>新威園, 英皇道","SUNWAY GARDENS/<br/>Sunway Gardens, King's Road","SUNWAY GARDENS/<br/>Sunway Gardens, King's Road",22.285351047098864
"MANSION STREET/<br/>Mansion Street, King's Road",114.20930488893737,"民新街/<br/>民新街, 英皇道",108,"民新街/<br/>民新街, 英皇道",bus,"民新街/<br/>民新街, 英皇道","民新街/<br/>民新街, 英皇道","民新街/<br/>民新街, 英皇道",hktransit,"MANSION STREET/<br/>Mansion Street, King's Road","民新街/<br/>民新街, 英皇道","MANSION STREET/<br/>Mansion Street, King's Road","MANSION STREET/<br/>Mansion Street, King's Road",22.28991190398467
"HEALTHY VILLAGE/<br/>Healthy Village, King's Road",114.20645235024399,"健康村/<br/>健康村, 英皇道",110,"健康村/<br/>健康村, 英皇道",bus,"健康村/<br/>健康村, 英皇道","健康村/<br/>健康村, 英皇道","健康村/<br/>健康村, 英皇道",hktransit,"HEALTHY VILLAGE/<br/>Healthy Village, King's Road","健康村/<br/>健康村, 英皇道","HEALTHY VILLAGE/<br/>Healthy Village, King's Road","HEALTHY VILLAGE/<br/>Healthy Village, King's Road",22.29189015662036
"HEALTHY GARDENS/<br/>Healthy Gardens, King's Road",114.20389045915044,"健威花园/<br/>健威花园, 英皇道",111,"健威花園/<br/>健威花園, 英皇道",bus,"健威花園/<br/>健威花園, 英皇道","健威花園/<br/>健威花園, 英皇道","健威花园/<br/>健威花园, 英皇道",hktransit,"HEALTHY GARDENS/<br/>Healthy Gardens, King's Road","健威花園/<br/>健威花園, 英皇道","HEALTHY GARDENS/<br/>Healthy Gardens, King's Road","HEALTHY GARDENS/<br/>Healthy Gardens, King's Road",22.29180029776618
CROSS HARBOUR TUNNEL/<br/>Cross Harbour Tunnel Toll Plaza,114.18026134518745,海底隧道/<br/>海底隧道收费广场,9015,海底隧道/<br/>海底隧道收費廣場,bus,海底隧道/<br/>海底隧道收費廣場,海底隧道/<br/>海底隧道收費廣場,海底隧道/<br/>海底隧道收费广场,hktransit,CROSS HARBOUR TUNNEL/<br/>Cross Harbour Tunnel Toll Plaza,海底隧道/<br/>海底隧道收費廣場,CROSS HARBOUR TUNNEL/<br/>Cross Harbour Tunnel Toll Plaza,CROSS HARBOUR TUNNEL/<br/>Cross Harbour Tunnel Toll Plaza,22.30310885237232
"DIOCESAN GIRLS' SCHOOL/<br/>Diocesan Girls' School, Gascoigne Road",114.17254585270723,"拔萃女书院/<br/>拔萃女书院, 加士居道",9011,"拔萃女書院/<br/>拔萃女書院, 加士居道",bus,"拔萃女書院/<br/>拔萃女書院, 加士居道","拔萃女書院/<br/>拔萃女書院, 加士居道","拔萃女书院/<br/>拔萃女书院, 加士居道",hktransit,"DIOCESAN GIRLS' SCHOOL/<br/>Diocesan Girls' School, Gascoigne Road","拔萃女書院/<br/>拔萃女書院, 加士居道","DIOCESAN GIRLS' SCHOOL/<br/>Diocesan Girls' School, Gascoigne Road","DIOCESAN GIRLS' SCHOOL/<br/>Diocesan Girls' School, Gascoigne Road",22.30777765746373
"PUBLIC SQUARE STREET YAU MA TEI/<br/>Public Square Street, Nathan Road",114.1709929046387,"油麻地众坊街/<br/>众坊街, 弥敦道",970,"油麻地眾坊街/<br/>眾坊街, 彌敦道",bus,"油麻地眾坊街/<br/>眾坊街, 彌敦道","油麻地眾坊街/<br/>眾坊街, 彌敦道","油麻地众坊街/<br/>众坊街, 弥敦道",hktransit,"PUBLIC SQUARE STREET YAU MA TEI/<br/>Public Square Street, Nathan Road","油麻地眾坊街/<br/>眾坊街, 彌敦道","PUBLIC SQUARE STREET YAU MA TEI/<br/>Public Square Street, Nathan Road","PUBLIC SQUARE STREET YAU MA TEI/<br/>Public Square Street, Nathan Road",22.310703525260312
"ARRAN STREET MONG KOK/<br/>Arran Street, Nathan Road",114.16846876469842,"旺角鸦兰街/<br/>鸦兰街, 弥敦道",10225,"旺角鴉蘭街/<br/>鴉蘭街, 彌敦道",bus,"旺角鴉蘭街/<br/>鴉蘭街, 彌敦道","旺角鴉蘭街/<br/>鴉蘭街, 彌敦道","旺角鸦兰街/<br/>鸦兰街, 弥敦道",hktransit,"ARRAN STREET MONG KOK/<br/>Arran Street, Nathan Road","旺角鴉蘭街/<br/>鴉蘭街, 彌敦道","ARRAN STREET MONG KOK/<br/>Arran Street, Nathan Road","ARRAN STREET MONG KOK/<br/>Arran Street, Nathan Road",22.323201761138673
"YEE KOK COURT/<br/>Yee Kok Court, Cheung Sha Wan Road",114.15860589748392,"怡阁苑/<br/>怡阁苑, 长沙湾道",9228,"怡閣苑/<br/>怡閣苑, 長沙灣道",bus,"怡閣苑/<br/>怡閣苑, 長沙灣道","怡閣苑/<br/>怡閣苑, 長沙灣道","怡阁苑/<br/>怡阁苑, 长沙湾道",hktransit,"YEE KOK COURT/<br/>Yee Kok Court, Cheung Sha Wan Road","怡閣苑/<br/>怡閣苑, 長沙灣道","YEE KOK COURT/<br/>Yee Kok Court, Cheung Sha Wan Road","YEE KOK COURT/<br/>Yee Kok Court, Cheung Sha Wan Road",22.333486787774525
"TRADE SQUARE/<br/>Trade Square, Cheung Sha Wan Road",114.15418869187964,"贸易广场/<br/>贸易广场, 长沙湾道",758,"貿易廣場/<br/>貿易廣場, 長沙灣道",bus,"貿易廣場/<br/>貿易廣場, 長沙灣道","貿易廣場/<br/>貿易廣場, 長沙灣道","贸易广场/<br/>贸易广场, 长沙湾道",hktransit,"TRADE SQUARE/<br/>Trade Square, Cheung Sha Wan Road","貿易廣場/<br/>貿易廣場, 長沙灣道","TRADE SQUARE/<br/>Trade Square, Cheung Sha Wan Road","TRADE SQUARE/<br/>Trade Square, Cheung Sha Wan Road",22.336872696963283
"SUNWAY GARDENS/<br/>Sunway Gardens, King's Road",114.21134166113606,"新威园/<br/>新威园, 英皇道",147,"新威園/<br/>新威園, 英皇道",bus,"新威園/<br/>新威園, 英皇道","新威園/<br/>新威園, 英皇道","新威园/<br/>新威园, 英皇道",hktransit,"SUNWAY GARDENS/<br/>Sunway Gardens, King's Road","新威園/<br/>新威園, 英皇道","SUNWAY GARDENS/<br/>Sunway Gardens, King's Road","SUNWAY GARDENS/<br/>Sunway Gardens, King's Road",22.285621935135495
"OI YIN STREET/<br/>Oi Yin Street, Aldrich Bay Road",114.22731173976797,"爱贤街/<br/>爱贤街, 爱秩序湾道",12470,"愛賢街/<br/>愛賢街, 愛秩序灣道",bus,"愛賢街/<br/>愛賢街, 愛秩序灣道","愛賢街/<br/>愛賢街, 愛秩序灣道","爱贤街/<br/>爱贤街, 爱秩序湾道",hktransit,"OI YIN STREET/<br/>Oi Yin Street, Aldrich Bay Road","愛賢街/<br/>愛賢街, 愛秩序灣道","OI YIN STREET/<br/>Oi Yin Street, Aldrich Bay Road","OI YIN STREET/<br/>Oi Yin Street, Aldrich Bay Road",22.279765904190942
SHAU KEI WAN BUS TERMINUS/<br/>Shau Kei Wan,114.22833008925117,筲箕湾巴士总站/<br/>筲箕湾,550,筲箕灣巴士總站/<br/>筲箕灣,bus,筲箕灣巴士總站/<br/>筲箕灣,筲箕灣巴士總站/<br/>筲箕灣,筲箕湾巴士总站/<br/>筲箕湾,hktransit,SHAU KEI WAN BUS TERMINUS/<br/>Shau Kei Wan,筲箕灣巴士總站/<br/>筲箕灣,SHAU KEI WAN BUS TERMINUS/<br/>Shau Kei Wan,SHAU KEI WAN BUS TERMINUS/<br/>Shau Kei Wan,22.278429050136804
"HILL ROAD/<br/>Chiu Sheung School Hong Kong, Pok Fu Lam Road",114.13612937278087,"山道/<br/>香港潮商学校, 薄扶林道",3116,"山道/<br/>香港潮商學校, 薄扶林道",bus,"山道/<br/>香港潮商學校, 薄扶林道","山道/<br/>香港潮商學校, 薄扶林道","山道/<br/>香港潮商学校, 薄扶林道",hktransit,"HILL ROAD/<br/>Chiu Sheung School Hong Kong, Pok Fu Lam Road","山道/<br/>香港潮商學校, 薄扶林道","HILL ROAD/<br/>Chiu Sheung School Hong Kong, Pok Fu Lam Road","HILL ROAD/<br/>Chiu Sheung School Hong Kong, Pok Fu Lam Road",22.283597641060943
HING FAT STREET/<br/>Hing Fat Street,114.19110935982349,兴发街,297,興發街,bus,興發街,興發街,兴发街,hktransit,HING FAT STREET/<br/>Hing Fat Street,興發街,HING FAT STREET/<br/>Hing Fat Street,HING FAT STREET/<br/>Hing Fat Street,22.2834305320322
POKFIELD ROAD BUS TERMINUS/<br/>Pokfield Road,114.13233591853229,蒲飞路巴士总站/<br/>蒲飞路,330,蒲飛路巴士總站/<br/>蒲飛路,bus,蒲飛路巴士總站/<br/>蒲飛路,蒲飛路巴士總站/<br/>蒲飛路,蒲飞路巴士总站/<br/>蒲飞路,hktransit,POKFIELD ROAD BUS TERMINUS/<br/>Pokfield Road,蒲飛路巴士總站/<br/>蒲飛路,POKFIELD ROAD BUS TERMINUS/<br/>Pokfield Road,POKFIELD ROAD BUS TERMINUS/<br/>Pokfield Road,22.28166409030071
MURRAY ROAD/<br/>Murray Road,114.16201864913053,美利道/<br/>美利道,616,美利道/<br/>美利道,bus,美利道/<br/>美利道,美利道/<br/>美利道,美利道/<br/>美利道,hktransit,MURRAY ROAD/<br/>Murray Road,美利道/<br/>美利道,MURRAY ROAD/<br/>Murray Road,MURRAY ROAD/<br/>Murray Road,22.2802517009795
"PATERSON STREET/<br/>Paterson Street, Yee Wo Street",114.18535498840652,"百德新街/<br/>百德新街, 怡和街",277,"百德新街/<br/>百德新街, 怡和街",bus,"百德新街/<br/>百德新街, 怡和街","百德新街/<br/>百德新街, 怡和街","百德新街/<br/>百德新街, 怡和街",hktransit,"PATERSON STREET/<br/>Paterson Street, Yee Wo Street","百德新街/<br/>百德新街, 怡和街","PATERSON STREET/<br/>Paterson Street, Yee Wo Street","PATERSON STREET/<br/>Paterson Street, Yee Wo Street",22.28004444768777
HEREFORD ROAD/<br/>Hereford Road,114.1803979995617,禧福道/<br/>禧福道,786,禧福道/<br/>禧福道,bus,禧福道/<br/>禧福道,禧福道/<br/>禧福道,禧福道/<br/>禧福道,hktransit,HEREFORD ROAD/<br/>Hereford Road,禧福道/<br/>禧福道,HEREFORD ROAD/<br/>Hereford Road,HEREFORD ROAD/<br/>Hereford Road,22.33405669974882
"JUNCTION ROAD, KOWLOON TONG/<br/>Junction Road, Waterloo Road",114.17928176344157,"九龙塘联合道/<br/>联合道, 窝打老道",4223,"九龍塘聯合道/<br/>聯合道, 窩打老道",bus,"九龍塘聯合道/<br/>聯合道, 窩打老道","九龍塘聯合道/<br/>聯合道, 窩打老道","九龙塘联合道/<br/>联合道, 窝打老道",hktransit,"JUNCTION ROAD, KOWLOON TONG/<br/>Junction Road, Waterloo Road","九龍塘聯合道/<br/>聯合道, 窩打老道","JUNCTION ROAD, KOWLOON TONG/<br/>Junction Road, Waterloo Road","JUNCTION ROAD, KOWLOON TONG/<br/>Junction Road, Waterloo Road",22.33788568472688
"LA VILLA/<br/>La Villa, Waterloo Road",114.17886425779062,"龙涛花园/<br/>龙涛花园, 窝打老道",4224,"龍濤花園/<br/>龍濤花園, 窩打老道",bus,"龍濤花園/<br/>龍濤花園, 窩打老道","龍濤花園/<br/>龍濤花園, 窩打老道","龙涛花园/<br/>龙涛花园, 窝打老道",hktransit,"LA VILLA/<br/>La Villa, Waterloo Road","龍濤花園/<br/>龍濤花園, 窩打老道","LA VILLA/<br/>La Villa, Waterloo Road","LA VILLA/<br/>La Villa, Waterloo Road",22.331401735824144
"KOWLOON HOSPITAL/<br/>Kowloon Hospital, Waterloo Road",114.17839824375007,"九龙医院/<br/>九龙医院, 窝打老道",770,"九龍醫院/<br/>九龍醫院, 窩打老道",bus,"九龍醫院/<br/>九龍醫院, 窩打老道","九龍醫院/<br/>九龍醫院, 窩打老道","九龙医院/<br/>九龙医院, 窝打老道",hktransit,"KOWLOON HOSPITAL/<br/>Kowloon Hospital, Waterloo Road","九龍醫院/<br/>九龍醫院, 窩打老道","KOWLOON HOSPITAL/<br/>Kowloon Hospital, Waterloo Road","KOWLOON HOSPITAL/<br/>Kowloon Hospital, Waterloo Road",22.32355416220054
"H.K. BAPTIST UNIVERSITY/<br/>HKBU Shaw Campus, Junction Road",114.18260169533501,"香港浸会大学/<br/>浸会大学逸夫校园, 联合道",4221,"香港浸會大學/<br/>浸會大學逸夫校園, 聯合道",bus,"香港浸會大學/<br/>浸會大學逸夫校園, 聯合道","香港浸會大學/<br/>浸會大學逸夫校園, 聯合道","香港浸会大学/<br/>浸会大学逸夫校园, 联合道",hktransit,"H.K. BAPTIST UNIVERSITY/<br/>HKBU Shaw Campus, Junction Road","香港浸會大學/<br/>浸會大學逸夫校園, 聯合道","H.K. BAPTIST UNIVERSITY/<br/>HKBU Shaw Campus, Junction Road","H.K. BAPTIST UNIVERSITY/<br/>HKBU Shaw Campus, Junction Road",22.339176972482953
"HO MAN TIN HILL ROAD/<br/>Ho Man Tin Hill Road, Wylie Road",114.17613674064168,"何文田山道/<br/>何文田山道, 卫理道",773,"何文田山道/<br/>何文田山道, 衛理道",bus,"何文田山道/<br/>何文田山道, 衛理道","何文田山道/<br/>何文田山道, 衛理道","何文田山道/<br/>何文田山道, 卫理道",hktransit,"HO MAN TIN HILL ROAD/<br/>Ho Man Tin Hill Road, Wylie Road","何文田山道/<br/>何文田山道, 衛理道","HO MAN TIN HILL ROAD/<br/>Ho Man Tin Hill Road, Wylie Road","HO MAN TIN HILL ROAD/<br/>Ho Man Tin Hill Road, Wylie Road",22.31250071881674
"PATERSON STREET/<br/>Paterson Street, Gloucester Road",114.1849864053007,"百德新街/<br/>百德新街, 告士打道",3021,"百德新街/<br/>百德新街, 告士打道",bus,"百德新街/<br/>百德新街, 告士打道","百德新街/<br/>百德新街, 告士打道","百德新街/<br/>百德新街, 告士打道",hktransit,"PATERSON STREET/<br/>Paterson Street, Gloucester Road","百德新街/<br/>百德新街, 告士打道","PATERSON STREET/<br/>Paterson Street, Gloucester Road","PATERSON STREET/<br/>Paterson Street, Gloucester Road",22.282464677269207
"DR SUN YAT-SEN MUSEUM/<br/>Dr Sun Yat-sen Museum, Caine Road",114.15188824598528,"孙中山纪念馆/<br/>孙中山纪念馆, 坚道",247,"孫中山紀念館/<br/>孫中山紀念館, 堅道",bus,"孫中山紀念館/<br/>孫中山紀念館, 堅道","孫中山紀念館/<br/>孫中山紀念館, 堅道","孙中山纪念馆/<br/>孙中山纪念馆, 坚道",hktransit,"DR SUN YAT-SEN MUSEUM/<br/>Dr Sun Yat-sen Museum, Caine Road","孫中山紀念館/<br/>孫中山紀念館, 堅道","DR SUN YAT-SEN MUSEUM/<br/>Dr Sun Yat-sen Museum, Caine Road","DR SUN YAT-SEN MUSEUM/<br/>Dr Sun Yat-sen Museum, Caine Road",22.281352198672955
"LADDER STREET/<br/>Ladder Street, Caine Road",114.14939418996684,"楼梯街/<br/>楼梯街, 坚道",248,"樓梯街/<br/>樓梯街, 堅道",bus,"樓梯街/<br/>樓梯街, 堅道","樓梯街/<br/>樓梯街, 堅道","楼梯街/<br/>楼梯街, 坚道",hktransit,"LADDER STREET/<br/>Ladder Street, Caine Road","樓梯街/<br/>樓梯街, 堅道","LADDER STREET/<br/>Ladder Street, Caine Road","LADDER STREET/<br/>Ladder Street, Caine Road",22.282877973731207
"SEYMOUR ROAD/<br/>Seymour Road, Caine Road",114.14793862315813,"西摩道/<br/>西摩道, 坚道",249,"西摩道/<br/>西摩道, 堅道",bus,"西摩道/<br/>西摩道, 堅道","西摩道/<br/>西摩道, 堅道","西摩道/<br/>西摩道, 坚道",hktransit,"SEYMOUR ROAD/<br/>Seymour Road, Caine Road","西摩道/<br/>西摩道, 堅道","SEYMOUR ROAD/<br/>Seymour Road, Caine Road","SEYMOUR ROAD/<br/>Seymour Road, Caine Road",22.283121548369174
"EUSTON COURT/<br/>Euston Court, Bonham Road",114.14485253637739,"豫苑/<br/>豫苑, 般咸道",265,"豫苑/<br/>豫苑, 般咸道",bus,"豫苑/<br/>豫苑, 般咸道","豫苑/<br/>豫苑, 般咸道","豫苑/<br/>豫苑, 般咸道",hktransit,"EUSTON COURT/<br/>Euston Court, Bonham Road","豫苑/<br/>豫苑, 般咸道","EUSTON COURT/<br/>Euston Court, Bonham Road","EUSTON COURT/<br/>Euston Court, Bonham Road",22.284818728829983
"EASTERN STREET/<br/>Eastern Street, Bonham Road",114.14424136372232,"东边街/<br/>东边街, 般咸道",266,"東邊街/<br/>東邊街, 般咸道",bus,"東邊街/<br/>東邊街, 般咸道","東邊街/<br/>東邊街, 般咸道","东边街/<br/>东边街, 般咸道",hktransit,"EASTERN STREET/<br/>Eastern Street, Bonham Road","東邊街/<br/>東邊街, 般咸道","EASTERN STREET/<br/>Eastern Street, Bonham Road","EASTERN STREET/<br/>Eastern Street, Bonham Road",22.284159371166023
"CENTRE STREET/<br/>Centre Street, Bonham Road",114.14218414582142,"正街/<br/>正街, 般咸道",380,"正街/<br/>正街, 般咸道",bus,"正街/<br/>正街, 般咸道","正街/<br/>正街, 般咸道","正街/<br/>正街, 般咸道",hktransit,"CENTRE STREET/<br/>Centre Street, Bonham Road","正街/<br/>正街, 般咸道","CENTRE STREET/<br/>Centre Street, Bonham Road","CENTRE STREET/<br/>Centre Street, Bonham Road",22.28443889479801
"HKU EAST GATE/<br/>HKU East Gate, Bonham Road",114.13860363346113,"香港大学东闸/<br/>香港大学东闸, 般咸道",381,"香港大學東閘/<br/>香港大學東閘, 般咸道",bus,"香港大學東閘/<br/>香港大學東閘, 般咸道","香港大學東閘/<br/>香港大學東閘, 般咸道","香港大学东闸/<br/>香港大学东闸, 般咸道",hktransit,"HKU EAST GATE/<br/>HKU East Gate, Bonham Road","香港大學東閘/<br/>香港大學東閘, 般咸道","HKU EAST GATE/<br/>HKU East Gate, Bonham Road","HKU EAST GATE/<br/>HKU East Gate, Bonham Road",22.284076865975152
"HKU WEST GATE/<br/>HKU West Gate, Pok Fu Lam Road",114.13561508235425,"香港大学西闸/<br/>香港大学西闸, 薄扶林道",328,"香港大學西閘/<br/>香港大學西閘, 薄扶林道",bus,"香港大學西閘/<br/>香港大學西閘, 薄扶林道","香港大學西閘/<br/>香港大學西閘, 薄扶林道","香港大学西闸/<br/>香港大学西闸, 薄扶林道",hktransit,"HKU WEST GATE/<br/>HKU West Gate, Pok Fu Lam Road","香港大學西閘/<br/>香港大學西閘, 薄扶林道","HKU WEST GATE/<br/>HKU West Gate, Pok Fu Lam Road","HKU WEST GATE/<br/>HKU West Gate, Pok Fu Lam Road",22.28361557258686
"LADY HO TUNG HALL/<br/>Lady Ho Tung Hall, Pok Fu Lam Road",114.13337353614179,"何东夫人堂/<br/>何东夫人堂, 薄扶林道",329,"何東夫人堂/<br/>何東夫人堂, 薄扶林道",bus,"何東夫人堂/<br/>何東夫人堂, 薄扶林道","何東夫人堂/<br/>何東夫人堂, 薄扶林道","何东夫人堂/<br/>何东夫人堂, 薄扶林道",hktransit,"LADY HO TUNG HALL/<br/>Lady Ho Tung Hall, Pok Fu Lam Road","何東夫人堂/<br/>何東夫人堂, 薄扶林道","LADY HO TUNG HALL/<br/>Lady Ho Tung Hall, Pok Fu Lam Road","LADY HO TUNG HALL/<br/>Lady Ho Tung Hall, Pok Fu Lam Road",22.283741416941147
"LADY HO TUNG HALL/<br/>Lady Ho Tung Hall, Pok Fu Lam Road",114.13296602565043,"何东夫人堂/<br/>何东夫人堂, 薄扶林道",349,"何東夫人堂/<br/>何東夫人堂, 薄扶林道",bus,"何東夫人堂/<br/>何東夫人堂, 薄扶林道","何東夫人堂/<br/>何東夫人堂, 薄扶林道","何东夫人堂/<br/>何东夫人堂, 薄扶林道",hktransit,"LADY HO TUNG HALL/<br/>Lady Ho Tung Hall, Pok Fu Lam Road","何東夫人堂/<br/>何東夫人堂, 薄扶林道","LADY HO TUNG HALL/<br/>Lady Ho Tung Hall, Pok Fu Lam Road","LADY HO TUNG HALL/<br/>Lady Ho Tung Hall, Pok Fu Lam Road",22.28362390913959
"KING'S COLLEGE/<br/>King's College, Bonham Road",114.1398359338198,"英皇书院/<br/>英皇书院, 般咸道",377,"英皇書院/<br/>英皇書院, 般咸道",bus,"英皇書院/<br/>英皇書院, 般咸道","英皇書院/<br/>英皇書院, 般咸道","英皇书院/<br/>英皇书院, 般咸道",hktransit,"KING'S COLLEGE/<br/>King's College, Bonham Road","英皇書院/<br/>英皇書院, 般咸道","KING'S COLLEGE/<br/>King's College, Bonham Road","KING'S COLLEGE/<br/>King's College, Bonham Road",22.284257764080778
"NING YEUNG TERRACE/<br/>Ning Yeung Terrace, Bonham Road",114.1412524974598,"宁养台/<br/>宁养台, 般咸道",378,"寧養台/<br/>寧養台, 般咸道",bus,"寧養台/<br/>寧養台, 般咸道","寧養台/<br/>寧養台, 般咸道","宁养台/<br/>宁养台, 般咸道",hktransit,"NING YEUNG TERRACE/<br/>Ning Yeung Terrace, Bonham Road","寧養台/<br/>寧養台, 般咸道","NING YEUNG TERRACE/<br/>Ning Yeung Terrace, Bonham Road","NING YEUNG TERRACE/<br/>Ning Yeung Terrace, Bonham Road",22.284863133000766
"WAN CHAI FIRE STATION/<br/>Wan Chai Fire Station, Hennessy Road",114.18156100285586,"湾仔消防局/<br/>湾仔消防局, 轩尼诗道",276,"灣仔消防局/<br/>灣仔消防局, 軒尼詩道",bus,"灣仔消防局/<br/>灣仔消防局, 軒尼詩道","灣仔消防局/<br/>灣仔消防局, 軒尼詩道","湾仔消防局/<br/>湾仔消防局, 轩尼诗道",hktransit,"WAN CHAI FIRE STATION/<br/>Wan Chai Fire Station, Hennessy Road","灣仔消防局/<br/>灣仔消防局, 軒尼詩道","WAN CHAI FIRE STATION/<br/>Wan Chai Fire Station, Hennessy Road","WAN CHAI FIRE STATION/<br/>Wan Chai Fire Station, Hennessy Road",22.27961113198044
"VICTORIA PARK/<br/>Victoria Park, Causeway Road",114.18963419832883,"维多利亚公园/<br/>维多利亚公园, 高士威道",137,"維多利亞公園/<br/>維多利亞公園, 高士威道",bus,"維多利亞公園/<br/>維多利亞公園, 高士威道","維多利亞公園/<br/>維多利亞公園, 高士威道","维多利亚公园/<br/>维多利亚公园, 高士威道",hktransit,"VICTORIA PARK/<br/>Victoria Park, Causeway Road","維多利亞公園/<br/>維多利亞公園, 高士威道","VICTORIA PARK/<br/>Victoria Park, Causeway Road","VICTORIA PARK/<br/>Victoria Park, Causeway Road",22.28088401584623
"CANNON STREET/<br/>Cannon Street, Gloucester Road",114.18300687796709,"景隆街/<br/>景隆街, 告士打道",658,"景隆街/<br/>景隆街, 告士打道",bus,"景隆街/<br/>景隆街, 告士打道","景隆街/<br/>景隆街, 告士打道","景隆街/<br/>景隆街, 告士打道",hktransit,"CANNON STREET/<br/>Cannon Street, Gloucester Road","景隆街/<br/>景隆街, 告士打道","CANNON STREET/<br/>Cannon Street, Gloucester Road","CANNON STREET/<br/>Cannon Street, Gloucester Road",22.28177843635877
"QUEEN ELIZABETH HOSPITAL/<br/>Queen Elizabeth Hospital, Wylie Road",114.17610763892716,"伊利沙伯医院/<br/>伊利沙伯医院, 卫理道",779,"伊利沙伯醫院/<br/>伊利沙伯醫院, 衛理道",bus,"伊利沙伯醫院/<br/>伊利沙伯醫院, 衛理道","伊利沙伯醫院/<br/>伊利沙伯醫院, 衛理道","伊利沙伯医院/<br/>伊利沙伯医院, 卫理道",hktransit,"QUEEN ELIZABETH HOSPITAL/<br/>Queen Elizabeth Hospital, Wylie Road","伊利沙伯醫院/<br/>伊利沙伯醫院, 衛理道","QUEEN ELIZABETH HOSPITAL/<br/>Queen Elizabeth Hospital, Wylie Road","QUEEN ELIZABETH HOSPITAL/<br/>Queen Elizabeth Hospital, Wylie Road",22.30962898671162
"GREENFIELD TERRACE/<br/>Greenfield Terrace, Princess Margaret Road",114.176728775072,"嘉辉台/<br/>嘉辉台, 公主道",780,"嘉輝台/<br/>嘉輝台, 公主道",bus,"嘉輝台/<br/>嘉輝台, 公主道","嘉輝台/<br/>嘉輝台, 公主道","嘉辉台/<br/>嘉辉台, 公主道",hktransit,"GREENFIELD TERRACE/<br/>Greenfield Terrace, Princess Margaret Road","嘉輝台/<br/>嘉輝台, 公主道","GREENFIELD TERRACE/<br/>Greenfield Terrace, Princess Margaret Road","GREENFIELD TERRACE/<br/>Greenfield Terrace, Princess Margaret Road",22.3133044438142
"AUXILIARY MEDICAL SERVICE/<br/>Auxiliary Medical Services Headquarters, Princess Margaret Road",114.17843700105321,"医疗辅助总部/<br/>医疗辅助队总部, 公主道",781,"醫療輔助總部/<br/>醫療輔助隊總部, 公主道",bus,"醫療輔助總部/<br/>醫療輔助隊總部, 公主道","醫療輔助總部/<br/>醫療輔助隊總部, 公主道","医疗辅助总部/<br/>医疗辅助队总部, 公主道",hktransit,"AUXILIARY MEDICAL SERVICE/<br/>Auxiliary Medical Services Headquarters, Princess Margaret Road","醫療輔助總部/<br/>醫療輔助隊總部, 公主道","AUXILIARY MEDICAL SERVICE/<br/>Auxiliary Medical Services Headquarters, Princess Margaret Road","AUXILIARY MEDICAL SERVICE/<br/>Auxiliary Medical Services Headquarters, Princess Margaret Road",22.31763912331632
"METROPARK HOTEL KOWLOON/<br/>Metropark Hotel Kowloon, Waterloo Road",114.17566111756489,"九龙维景酒店/<br/>九龙维景酒店, 窝打老道",782,"九龍維景酒店/<br/>九龍維景酒店, 窩打老道",bus,"九龍維景酒店/<br/>九龍維景酒店, 窩打老道","九龍維景酒店/<br/>九龍維景酒店, 窩打老道","九龙维景酒店/<br/>九龙维景酒店, 窝打老道",hktransit,"METROPARK HOTEL KOWLOON/<br/>Metropark Hotel Kowloon, Waterloo Road","九龍維景酒店/<br/>九龍維景酒店, 窩打老道","METROPARK HOTEL KOWLOON/<br/>Metropark Hotel Kowloon, Waterloo Road","METROPARK HOTEL KOWLOON/<br/>Metropark Hotel Kowloon, Waterloo Road",22.318984685819604
"KOWLOON TONG CLUB/<br/>Kowloon Tong Club, Waterloo Road",114.17851479340212,"九龙塘会/<br/>九龙塘会, 窝打老道",4238,"九龍塘會/<br/>九龍塘會, 窩打老道",bus,"九龍塘會/<br/>九龍塘會, 窩打老道","九龍塘會/<br/>九龍塘會, 窩打老道","九龙塘会/<br/>九龙塘会, 窝打老道",hktransit,"KOWLOON TONG CLUB/<br/>Kowloon Tong Club, Waterloo Road","九龍塘會/<br/>九龍塘會, 窩打老道","KOWLOON TONG CLUB/<br/>Kowloon Tong Club, Waterloo Road","KOWLOON TONG CLUB/<br/>Kowloon Tong Club, Waterloo Road",22.32976720447998
"CHRISTIAN CENTRAL CHURCH/<br/>Christian Central Church, Waterloo Road",114.17866042396095,"基督中心堂/<br/>基督中心堂, 窝打老道",785,"基督中心堂/<br/>基督中心堂, 窩打老道",bus,"基督中心堂/<br/>基督中心堂, 窩打老道","基督中心堂/<br/>基督中心堂, 窩打老道","基督中心堂/<br/>基督中心堂, 窝打老道",hktransit,"CHRISTIAN CENTRAL CHURCH/<br/>Christian Central Church, Waterloo Road","基督中心堂/<br/>基督中心堂, 窩打老道","CHRISTIAN CENTRAL CHURCH/<br/>Christian Central Church, Waterloo Road","CHRISTIAN CENTRAL CHURCH/<br/>Christian Central Church, Waterloo Road",22.332088062391197
"MARY ROSE SCHOOL/<br/>Mary Rose School, Renfrew Road",114.18132018142632,"天保民学校/<br/>天保民学校, 联福道",787,"天保民學校/<br/>天保民學校, 聯福道",bus,"天保民學校/<br/>天保民學校, 聯福道","天保民學校/<br/>天保民學校, 聯福道","天保民学校/<br/>天保民学校, 联福道",hktransit,"MARY ROSE SCHOOL/<br/>Mary Rose School, Renfrew Road","天保民學校/<br/>天保民學校, 聯福道","MARY ROSE SCHOOL/<br/>Mary Rose School, Renfrew Road","MARY ROSE SCHOOL/<br/>Mary Rose School, Renfrew Road",22.33463463381228
"H.K. BAPTIST UNIVERSITY/<br/>HKBU Shaw Campus, Renfrew Road",114.18163091957918,"香港浸会大学/<br/>浸会大学逸夫校园, 联福道",788,"香港浸會大學/<br/>浸會大學逸夫校園, 聯福道",bus,"香港浸會大學/<br/>浸會大學逸夫校園, 聯福道","香港浸會大學/<br/>浸會大學逸夫校園, 聯福道","香港浸会大学/<br/>浸会大学逸夫校园, 联福道",hktransit,"H.K. BAPTIST UNIVERSITY/<br/>HKBU Shaw Campus, Renfrew Road","香港浸會大學/<br/>浸會大學逸夫校園, 聯福道","H.K. BAPTIST UNIVERSITY/<br/>HKBU Shaw Campus, Renfrew Road","H.K. BAPTIST UNIVERSITY/<br/>HKBU Shaw Campus, Renfrew Road",22.337948846192123
"FU KEUNG COURT/<br/>Fu Keung Court, Junction Road",114.18438786192193,"富强苑/<br/>富强苑, 联合道",4244,"富強苑/<br/>富強苑, 聯合道",bus,"富強苑/<br/>富強苑, 聯合道","富強苑/<br/>富強苑, 聯合道","富强苑/<br/>富强苑, 联合道",hktransit,"FU KEUNG COURT/<br/>Fu Keung Court, Junction Road","富強苑/<br/>富強苑, 聯合道","FU KEUNG COURT/<br/>Fu Keung Court, Junction Road","FU KEUNG COURT/<br/>Fu Keung Court, Junction Road",22.33948393848858
"LOK FU PLAZA/<br/>Lok Fu Plaza, Junction Road",114.18629039512946,"乐富广场/<br/>乐富广场, 联合道",790,"樂富廣場/<br/>樂富廣場, 聯合道",bus,"樂富廣場/<br/>樂富廣場, 聯合道","樂富廣場/<br/>樂富廣場, 聯合道","乐富广场/<br/>乐富广场, 联合道",hktransit,"LOK FU PLAZA/<br/>Lok Fu Plaza, Junction Road","樂富廣場/<br/>樂富廣場, 聯合道","LOK FU PLAZA/<br/>Lok Fu Plaza, Junction Road","LOK FU PLAZA/<br/>Lok Fu Plaza, Junction Road",22.337867366023808
LOK FU BUS TERMINUS/<br/>Lok Fu Estate,114.18766891764602,乐富总站/<br/>乐富邨,4218,樂富總站/<br/>樂富邨,bus,樂富總站/<br/>樂富邨,樂富總站/<br/>樂富邨,乐富总站/<br/>乐富邨,hktransit,LOK FU BUS TERMINUS/<br/>Lok Fu Estate,樂富總站/<br/>樂富邨,LOK FU BUS TERMINUS/<br/>Lok Fu Estate,LOK FU BUS TERMINUS/<br/>Lok Fu Estate,22.339077376500445
"ELIZABETH HOUSE/<br/>Elizabeth House, Gloucester Road",114.18145431496622,"伊利莎伯大厦/<br/>伊利莎伯大厦, 告士打道",15,"伊利莎伯大廈/<br/>伊利莎伯大廈, 告士打道",bus,"伊利莎伯大廈/<br/>伊利莎伯大廈, 告士打道","伊利莎伯大廈/<br/>伊利莎伯大廈, 告士打道","伊利莎伯大厦/<br/>伊利莎伯大厦, 告士打道",hktransit,"ELIZABETH HOUSE/<br/>Elizabeth House, Gloucester Road","伊利莎伯大廈/<br/>伊利莎伯大廈, 告士打道","ELIZABETH HOUSE/<br/>Elizabeth House, Gloucester Road","ELIZABETH HOUSE/<br/>Elizabeth House, Gloucester Road",22.281056037099656
"MARSH ROAD/<br/>Marsh Road, Gloucester Road",114.17964948360569,"马师道/<br/>马师道, 告士打道",16,"馬師道/<br/>馬師道, 告士打道",bus,"馬師道/<br/>馬師道, 告士打道","馬師道/<br/>馬師道, 告士打道","马师道/<br/>马师道, 告士打道",hktransit,"MARSH ROAD/<br/>Marsh Road, Gloucester Road","馬師道/<br/>馬師道, 告士打道","MARSH ROAD/<br/>Marsh Road, Gloucester Road","MARSH ROAD/<br/>Marsh Road, Gloucester Road",22.280369750060842
"STEWART ROAD/<br/>Stewart Road, Gloucester Road",114.17732069548293,"史钊域道/<br/>史钊域道, 告士打道",1268,"史釗域道/<br/>史釗域道, 告士打道",bus,"史釗域道/<br/>史釗域道, 告士打道","史釗域道/<br/>史釗域道, 告士打道","史钊域道/<br/>史钊域道, 告士打道",hktransit,"STEWART ROAD/<br/>Stewart Road, Gloucester Road","史釗域道/<br/>史釗域道, 告士打道","STEWART ROAD/<br/>Stewart Road, Gloucester Road","STEWART ROAD/<br/>Stewart Road, Gloucester Road",22.279629261507896
"O'BRIEN ROAD/<br/>O'Brien Road, Gloucester Road",114.17346852802801,"柯布连道/<br/>柯布连道, 告士打道",776,"柯布連道/<br/>柯布連道, 告士打道",bus,"柯布連道/<br/>柯布連道, 告士打道","柯布連道/<br/>柯布連道, 告士打道","柯布连道/<br/>柯布连道, 告士打道",hktransit,"O'BRIEN ROAD/<br/>O'Brien Road, Gloucester Road","柯布連道/<br/>柯布連道, 告士打道","O'BRIEN ROAD/<br/>O'Brien Road, Gloucester Road","O'BRIEN ROAD/<br/>O'Brien Road, Gloucester Road",22.279141573021153
"FENWICK STREET/<br/>Fenwick Street, Gloucester Road",114.17096510772383,"分域街/<br/>分域街, 告士打道",3173,"分域街/<br/>分域街, 告士打道",bus,"分域街/<br/>分域街, 告士打道","分域街/<br/>分域街, 告士打道","分域街/<br/>分域街, 告士打道",hktransit,"FENWICK STREET/<br/>Fenwick Street, Gloucester Road","分域街/<br/>分域街, 告士打道","FENWICK STREET/<br/>Fenwick Street, Gloucester Road","FENWICK STREET/<br/>Fenwick Street, Gloucester Road",22.279087318103855
"HONG KONG PARK/<br/>Hong Kong Park, Cotton Tree Drive",114.16039850882342,"香港公园/<br/>香港公园, 红棉路",244,"香港公園/<br/>香港公園, 紅棉路",bus,"香港公園/<br/>香港公園, 紅棉路","香港公園/<br/>香港公園, 紅棉路","香港公园/<br/>香港公园, 红棉路",hktransit,"HONG KONG PARK/<br/>Hong Kong Park, Cotton Tree Drive","香港公園/<br/>香港公園, 紅棉路","HONG KONG PARK/<br/>Hong Kong Park, Cotton Tree Drive","HONG KONG PARK/<br/>Hong Kong Park, Cotton Tree Drive",22.27764169046552
"KENNEDY HEIGHTS/<br/>Kennedy Heights, Kennedy Road",114.15750714972648,"坚丽阁/<br/>坚丽阁, 坚尼地道",245,"堅麗閣/<br/>堅麗閣, 堅尼地道",bus,"堅麗閣/<br/>堅麗閣, 堅尼地道","堅麗閣/<br/>堅麗閣, 堅尼地道","坚丽阁/<br/>坚丽阁, 坚尼地道",hktransit,"KENNEDY HEIGHTS/<br/>Kennedy Heights, Kennedy Road","堅麗閣/<br/>堅麗閣, 堅尼地道","KENNEDY HEIGHTS/<br/>Kennedy Heights, Kennedy Road","KENNEDY HEIGHTS/<br/>Kennedy Heights, Kennedy Road",22.27647641951416
"CARITAS CENTRE/<br/>Caritas Centre, Caine Road",114.1542076594006,"明爱中心/<br/>明爱中心, 坚道",246,"明愛中心/<br/>明愛中心, 堅道",bus,"明愛中心/<br/>明愛中心, 堅道","明愛中心/<br/>明愛中心, 堅道","明爱中心/<br/>明爱中心, 坚道",hktransit,"CARITAS CENTRE/<br/>Caritas Centre, Caine Road","明愛中心/<br/>明愛中心, 堅道","CARITAS CENTRE/<br/>Caritas Centre, Caine Road","CARITAS CENTRE/<br/>Caritas Centre, Caine Road",22.279392890114167
"EASTERN STREET/<br/>Eastern Street, Bonham Road",114.14347473750941,"东边街/<br/>东边街, 般咸道",673,"東邊街/<br/>東邊街, 般咸道",bus,"東邊街/<br/>東邊街, 般咸道","東邊街/<br/>東邊街, 般咸道","东边街/<br/>东边街, 般咸道",hktransit,"EASTERN STREET/<br/>Eastern Street, Bonham Road","東邊街/<br/>東邊街, 般咸道","EASTERN STREET/<br/>Eastern Street, Bonham Road","EASTERN STREET/<br/>Eastern Street, Bonham Road",22.28435788938608
"HIGH STREET/<br/>High Street, Bonham Road",114.14566761094646,"高街/<br/>高街, 般咸道",471,"高街/<br/>高街, 般咸道",bus,"高街/<br/>高街, 般咸道","高街/<br/>高街, 般咸道","高街/<br/>高街, 般咸道",hktransit,"HIGH STREET/<br/>High Street, Bonham Road","高街/<br/>高街, 般咸道","HIGH STREET/<br/>High Street, Bonham Road","HIGH STREET/<br/>High Street, Bonham Road",22.284936285533927
"HOSPITAL ROAD/<br/>Hospital Road, Bonham Road",114.14744363717053,"医院道/<br/>医院道, 般咸道",472,"醫院道/<br/>醫院道, 般咸道",bus,"醫院道/<br/>醫院道, 般咸道","醫院道/<br/>醫院道, 般咸道","医院道/<br/>医院道, 般咸道",hktransit,"HOSPITAL ROAD/<br/>Hospital Road, Bonham Road","醫院道/<br/>醫院道, 般咸道","HOSPITAL ROAD/<br/>Hospital Road, Bonham Road","HOSPITAL ROAD/<br/>Hospital Road, Bonham Road",22.28364523627564
"LADDER STREET/<br/>Ladder Street, Caine Road",114.14887015187865,"楼梯街/<br/>楼梯街, 坚道",473,"樓梯街/<br/>樓梯街, 堅道",bus,"樓梯街/<br/>樓梯街, 堅道","樓梯街/<br/>樓梯街, 堅道","楼梯街/<br/>楼梯街, 坚道",hktransit,"LADDER STREET/<br/>Ladder Street, Caine Road","樓梯街/<br/>樓梯街, 堅道","LADDER STREET/<br/>Ladder Street, Caine Road","LADDER STREET/<br/>Ladder Street, Caine Road",22.28313977272103
"ABERDEEN STREET/<br/>Aberdeen Street, Caine Road",114.15087890535929,"鸭巴甸街/<br/>鸭巴甸街, 坚道",474,"鴨巴甸街/<br/>鴨巴甸街, 堅道",bus,"鴨巴甸街/<br/>鴨巴甸街, 堅道","鴨巴甸街/<br/>鴨巴甸街, 堅道","鸭巴甸街/<br/>鸭巴甸街, 坚道",hktransit,"ABERDEEN STREET/<br/>Aberdeen Street, Caine Road","鴨巴甸街/<br/>鴨巴甸街, 堅道","ABERDEEN STREET/<br/>Aberdeen Street, Caine Road","ABERDEEN STREET/<br/>Aberdeen Street, Caine Road",22.28239959419354
"CARITAS CENTRE/<br/>Caritas Centre, Caine Road",114.15400377486084,"明爱中心/<br/>明爱中心, 坚道",674,"明愛中心/<br/>明愛中心, 堅道",bus,"明愛中心/<br/>明愛中心, 堅道","明愛中心/<br/>明愛中心, 堅道","明爱中心/<br/>明爱中心, 坚道",hktransit,"CARITAS CENTRE/<br/>Caritas Centre, Caine Road","明愛中心/<br/>明愛中心, 堅道","CARITAS CENTRE/<br/>Caritas Centre, Caine Road","CARITAS CENTRE/<br/>Caritas Centre, Caine Road",22.280115312609077
"GOVERNMENT HOUSE/<br/>Government House, Upper Albert Road",114.15641038128855,"香港礼宾府/<br/>香港礼宾府, 上亚厘毕道",777,"香港禮賓府/<br/>香港禮賓府, 上亞厘畢道",bus,"香港禮賓府/<br/>香港禮賓府, 上亞厘畢道","香港禮賓府/<br/>香港禮賓府, 上亞厘畢道","香港礼宾府/<br/>香港礼宾府, 上亚厘毕道",hktransit,"GOVERNMENT HOUSE/<br/>Government House, Upper Albert Road","香港禮賓府/<br/>香港禮賓府, 上亞厘畢道","GOVERNMENT HOUSE/<br/>Government House, Upper Albert Road","GOVERNMENT HOUSE/<br/>Government House, Upper Albert Road",22.278742976041528
"ST. JOHN'S CATHEDRAL/<br/>St. John's Cathedral, Garden Road",114.15970951290508,"圣约翰座堂/<br/>圣约翰座堂, 花园道",256,"聖約翰座堂/<br/>聖約翰座堂, 花園道",bus,"聖約翰座堂/<br/>聖約翰座堂, 花園道","聖約翰座堂/<br/>聖約翰座堂, 花園道","圣约翰座堂/<br/>圣约翰座堂, 花园道",hktransit,"ST. JOHN'S CATHEDRAL/<br/>St. John's Cathedral, Garden Road","聖約翰座堂/<br/>聖約翰座堂, 花園道","ST. JOHN'S CATHEDRAL/<br/>St. John's Cathedral, Garden Road","ST. JOHN'S CATHEDRAL/<br/>St. John's Cathedral, Garden Road",22.27827376410027
"ADMIRALTY STATION/<br/>Admiralty Station, Queensway",114.16520147816134,"金钟站/<br/>金钟站, 金钟道",8051,"金鐘站/<br/>金鐘站, 金鐘道",bus,"金鐘站/<br/>金鐘站, 金鐘道","金鐘站/<br/>金鐘站, 金鐘道","金钟站/<br/>金钟站, 金钟道",hktransit,"ADMIRALTY STATION/<br/>Admiralty Station, Queensway","金鐘站/<br/>金鐘站, 金鐘道","ADMIRALTY STATION/<br/>Admiralty Station, Queensway","ADMIRALTY STATION/<br/>Admiralty Station, Queensway",22.278337464657604
"O'BRIEN ROAD/<br/>O'Brien Road, Hennessy Road",114.1726438010773,"柯布连道/<br/>柯布连道, 轩尼诗道",8053,"柯布連道/<br/>柯布連道, 軒尼詩道",bus,"柯布連道/<br/>柯布連道, 軒尼詩道","柯布連道/<br/>柯布連道, 軒尼詩道","柯布连道/<br/>柯布连道, 轩尼诗道",hktransit,"O'BRIEN ROAD/<br/>O'Brien Road, Hennessy Road","柯布連道/<br/>柯布連道, 軒尼詩道","O'BRIEN ROAD/<br/>O'Brien Road, Hennessy Road","O'BRIEN ROAD/<br/>O'Brien Road, Hennessy Road",22.277660528925505
"STEWART ROAD/<br/>Stewart Road, Hennessy Road",114.176233941331,"史钊域道/<br/>史钊域道, 轩尼诗道",133,"史釗域道/<br/>史釗域道, 軒尼詩道",bus,"史釗域道/<br/>史釗域道, 軒尼詩道","史釗域道/<br/>史釗域道, 軒尼詩道","史钊域道/<br/>史钊域道, 轩尼诗道",hktransit,"STEWART ROAD/<br/>Stewart Road, Hennessy Road","史釗域道/<br/>史釗域道, 軒尼詩道","STEWART ROAD/<br/>Stewart Road, Hennessy Road","STEWART ROAD/<br/>Stewart Road, Hennessy Road",22.27803986863207
"TONNOCHY ROAD/<br/>Tonnochy Road, Hennessy Road",114.17854328844389,"杜老志道/<br/>杜老志道, 轩尼诗道",3131,"杜老誌道/<br/>杜老誌道, 軒尼詩道",bus,"杜老誌道/<br/>杜老誌道, 軒尼詩道","杜老誌道/<br/>杜老誌道, 軒尼詩道","杜老志道/<br/>杜老志道, 轩尼诗道",hktransit,"TONNOCHY ROAD/<br/>Tonnochy Road, Hennessy Road","杜老誌道/<br/>杜老誌道, 軒尼詩道","TONNOCHY ROAD/<br/>Tonnochy Road, Hennessy Road","TONNOCHY ROAD/<br/>Tonnochy Road, Hennessy Road",22.278563637770553
"ARSENAL STREET/<br/>Arsenal Street, Hennessy Road",114.1695679148825,"军器厂街/<br/>军器厂街, 轩尼诗道",131,"軍器廠街/<br/>軍器廠街, 軒尼詩道",bus,"軍器廠街/<br/>軍器廠街, 軒尼詩道","軍器廠街/<br/>軍器廠街, 軒尼詩道","军器厂街/<br/>军器厂街, 轩尼诗道",hktransit,"ARSENAL STREET/<br/>Arsenal Street, Hennessy Road","軍器廠街/<br/>軍器廠街, 軒尼詩道","ARSENAL STREET/<br/>Arsenal Street, Hennessy Road","ARSENAL STREET/<br/>Arsenal Street, Hennessy Road",22.277813941440225
"QUEEN ELIZABETH HOSPITAL/<br/>Queen Elizabeth Hospital, Wylie Road",114.17637938879255,"伊利沙伯医院/<br/>伊利沙伯医院, 卫理道",774,"伊利沙伯醫院/<br/>伊利沙伯醫院, 衛理道",bus,"伊利沙伯醫院/<br/>伊利沙伯醫院, 衛理道","伊利沙伯醫院/<br/>伊利沙伯醫院, 衛理道","伊利沙伯医院/<br/>伊利沙伯医院, 卫理道",hktransit,"QUEEN ELIZABETH HOSPITAL/<br/>Queen Elizabeth Hospital, Wylie Road","伊利沙伯醫院/<br/>伊利沙伯醫院, 衛理道","QUEEN ELIZABETH HOSPITAL/<br/>Queen Elizabeth Hospital, Wylie Road","QUEEN ELIZABETH HOSPITAL/<br/>Queen Elizabeth Hospital, Wylie Road",22.30911424317501
"WANG YIP HOUSE/<br/>Wang Yip House Wang Tau Hom Estate, Fu Mei Street",114.18879509045306,"宏业楼/<br/>横头磡邨宏业楼, 富美街",1373,"宏業樓/<br/>橫頭磡邨宏業樓, 富美街",bus,"宏業樓/<br/>橫頭磡邨宏業樓, 富美街","宏業樓/<br/>橫頭磡邨宏業樓, 富美街","宏业楼/<br/>横头磡邨宏业楼, 富美街",hktransit,"WANG YIP HOUSE/<br/>Wang Yip House Wang Tau Hom Estate, Fu Mei Street","宏業樓/<br/>橫頭磡邨宏業樓, 富美街","WANG YIP HOUSE/<br/>Wang Yip House Wang Tau Hom Estate, Fu Mei Street","WANG YIP HOUSE/<br/>Wang Yip House Wang Tau Hom Estate, Fu Mei Street",22.34051315816826
"KOWLOON TONG STATION/<br/>Kowloon Tong Station, Waterloo Road",114.1791167049078,"九龙塘站/<br/>九龙塘站, 窝打老道",768,"九龍塘站/<br/>九龍塘站, 窩打老道",bus,"九龍塘站/<br/>九龍塘站, 窩打老道","九龍塘站/<br/>九龍塘站, 窩打老道","九龙塘站/<br/>九龙塘站, 窝打老道",hktransit,"KOWLOON TONG STATION/<br/>Kowloon Tong Station, Waterloo Road","九龍塘站/<br/>九龍塘站, 窩打老道","KOWLOON TONG STATION/<br/>Kowloon Tong Station, Waterloo Road","KOWLOON TONG STATION/<br/>Kowloon Tong Station, Waterloo Road",22.33571834910276
"HO MAN TIN HILL ROAD/<br/>Ho Man Tin Hill Road, Wylie Road",114.17569028449644,"何文田山道/<br/>何文田山道, 卫理道",9057,"何文田山道/<br/>何文田山道, 衛理道",bus,"何文田山道/<br/>何文田山道, 衛理道","何文田山道/<br/>何文田山道, 衛理道","何文田山道/<br/>何文田山道, 卫理道",hktransit,"HO MAN TIN HILL ROAD/<br/>Ho Man Tin Hill Road, Wylie Road","何文田山道/<br/>何文田山道, 衛理道","HO MAN TIN HILL ROAD/<br/>Ho Man Tin Hill Road, Wylie Road","HO MAN TIN HILL ROAD/<br/>Ho Man Tin Hill Road, Wylie Road",22.312934185184506
"MACPHERSON PLAYGROUND/<br/>Macpherson Playground, Yim Po Fong Street",114.17321523645667,"麦花臣游乐场/<br/>麦花臣游乐场, 染布房街",10252,"麥花臣遊樂場/<br/>麥花臣遊樂場, 染布房街",bus,"麥花臣遊樂場/<br/>麥花臣遊樂場, 染布房街","麥花臣遊樂場/<br/>麥花臣遊樂場, 染布房街","麦花臣游乐场/<br/>麦花臣游乐场, 染布房街",hktransit,"MACPHERSON PLAYGROUND/<br/>Macpherson Playground, Yim Po Fong Street","麥花臣遊樂場/<br/>麥花臣遊樂場, 染布房街","MACPHERSON PLAYGROUND/<br/>Macpherson Playground, Yim Po Fong Street","MACPHERSON PLAYGROUND/<br/>Macpherson Playground, Yim Po Fong Street",22.318370569262555
"YIN HING STREET, SAN PO KONG/<br/>Choi Hung Road Playground, Choi Hung Road",114.19445392374676,"新蒲岗衍庆街/<br/>彩虹道游乐场, 彩虹道",4118,"新蒲崗衍慶街/<br/>彩虹道遊樂場, 彩虹道",bus,"新蒲崗衍慶街/<br/>彩虹道遊樂場, 彩虹道","新蒲崗衍慶街/<br/>彩虹道遊樂場, 彩虹道","新蒲岗衍庆街/<br/>彩虹道游乐场, 彩虹道",hktransit,"YIN HING STREET, SAN PO KONG/<br/>Choi Hung Road Playground, Choi Hung Road","新蒲崗衍慶街/<br/>彩虹道遊樂場, 彩虹道","YIN HING STREET, SAN PO KONG/<br/>Choi Hung Road Playground, Choi Hung Road","YIN HING STREET, SAN PO KONG/<br/>Choi Hung Road Playground, Choi Hung Road",22.335753529313926
"SHEUNG ON STREET/<br/>Sheung On Street, Chai Wan Road",114.24513956454581,"常安街/<br/>常安街, 柴湾道",1551,"常安街/<br/>常安街, 柴灣道",bus,"常安街/<br/>常安街, 柴灣道","常安街/<br/>常安街, 柴灣道","常安街/<br/>常安街, 柴湾道",hktransit,"SHEUNG ON STREET/<br/>Sheung On Street, Chai Wan Road","常安街/<br/>常安街, 柴灣道","SHEUNG ON STREET/<br/>Sheung On Street, Chai Wan Road","SHEUNG ON STREET/<br/>Sheung On Street, Chai Wan Road",22.265951531263113
"REGAL ORIENTAL HOTEL/<br/>Regal Oriental Hotel, Prince Edward Road East",114.19211374817237,"富豪东方酒店/<br/>富豪东方酒店, 太子道东",820,"富豪東方酒店/<br/>富豪東方酒店, 太子道東",bus,"富豪東方酒店/<br/>富豪東方酒店, 太子道東","富豪東方酒店/<br/>富豪東方酒店, 太子道東","富豪东方酒店/<br/>富豪东方酒店, 太子道东",hktransit,"REGAL ORIENTAL HOTEL/<br/>Regal Oriental Hotel, Prince Edward Road East","富豪東方酒店/<br/>富豪東方酒店, 太子道東","REGAL ORIENTAL HOTEL/<br/>Regal Oriental Hotel, Prince Edward Road East","REGAL ORIENTAL HOTEL/<br/>Regal Oriental Hotel, Prince Edward Road East",22.32873700621859
"THE HK SOCIETY FOR THE BLIND/<br/>The HK Society for the Blind, Mok Cheong Street",114.19374357337155,"香港盲人辅导会/<br/>香港盲人辅导会, 木厂街",4164,"香港盲人輔導會/<br/>香港盲人輔導會, 木廠街",bus,"香港盲人輔導會/<br/>香港盲人輔導會, 木廠街","香港盲人輔導會/<br/>香港盲人輔導會, 木廠街","香港盲人辅导会/<br/>香港盲人辅导会, 木厂街",hktransit,"THE HK SOCIETY FOR THE BLIND/<br/>The HK Society for the Blind, Mok Cheong Street","香港盲人輔導會/<br/>香港盲人輔導會, 木廠街","THE HK SOCIETY FOR THE BLIND/<br/>The HK Society for the Blind, Mok Cheong Street","THE HK SOCIETY FOR THE BLIND/<br/>The HK Society for the Blind, Mok Cheong Street",22.32138594575283
"GRAND WATERFRONT/<br/>Grand Waterfront, To Kwa Wan Road",114.19313191039073,"翔龙湾/<br/>翔龙湾, 土瓜湾道",4165,"翔龍灣/<br/>翔龍灣, 土瓜灣道",bus,"翔龍灣/<br/>翔龍灣, 土瓜灣道","翔龍灣/<br/>翔龍灣, 土瓜灣道","翔龙湾/<br/>翔龙湾, 土瓜湾道",hktransit,"GRAND WATERFRONT/<br/>Grand Waterfront, To Kwa Wan Road","翔龍灣/<br/>翔龍灣, 土瓜灣道","GRAND WATERFRONT/<br/>Grand Waterfront, To Kwa Wan Road","GRAND WATERFRONT/<br/>Grand Waterfront, To Kwa Wan Road",22.31985080761137
"KWEI CHOW STREET/<br/>Kwei Chow Street, To Kwa Wan Road",114.19148170755541,"贵州街/<br/>贵州街, 土瓜湾道",4166,"貴州街/<br/>貴州街, 土瓜灣道",bus,"貴州街/<br/>貴州街, 土瓜灣道","貴州街/<br/>貴州街, 土瓜灣道","贵州街/<br/>贵州街, 土瓜湾道",hktransit,"KWEI CHOW STREET/<br/>Kwei Chow Street, To Kwa Wan Road","貴州街/<br/>貴州街, 土瓜灣道","KWEI CHOW STREET/<br/>Kwei Chow Street, To Kwa Wan Road","KWEI CHOW STREET/<br/>Kwei Chow Street, To Kwa Wan Road",22.318099029738427
"LOK SHAN ROAD/<br/>Lok Shan Road, To Kwa Wan Road",114.19053043449041,"落山道/<br/>落山道, 土瓜湾道",9032,"落山道/<br/>落山道, 土瓜灣道",bus,"落山道/<br/>落山道, 土瓜灣道","落山道/<br/>落山道, 土瓜灣道","落山道/<br/>落山道, 土瓜湾道",hktransit,"LOK SHAN ROAD/<br/>Lok Shan Road, To Kwa Wan Road","落山道/<br/>落山道, 土瓜灣道","LOK SHAN ROAD/<br/>Lok Shan Road, To Kwa Wan Road","LOK SHAN ROAD/<br/>Lok Shan Road, To Kwa Wan Road",22.3171057473073
"KAI MING STREET/<br/>Kai Ming Street, To Kwa Wan Road",114.18789023429751,"启明街/<br/>启明街, 土瓜湾道",9030,"啟明街/<br/>啟明街, 土瓜灣道",bus,"啟明街/<br/>啟明街, 土瓜灣道","啟明街/<br/>啟明街, 土瓜灣道","启明街/<br/>启明街, 土瓜湾道",hktransit,"KAI MING STREET/<br/>Kai Ming Street, To Kwa Wan Road","啟明街/<br/>啟明街, 土瓜灣道","KAI MING STREET/<br/>Kai Ming Street, To Kwa Wan Road","KAI MING STREET/<br/>Kai Ming Street, To Kwa Wan Road",22.314315493951295
"KORNHILL PLAZA/<br/>Kornhill Plaza, Kornhill Road",114.2160864983936,"康怡广场/<br/>康怡广场, 康山道",149,"康怡廣場/<br/>康怡廣場, 康山道",bus,"康怡廣場/<br/>康怡廣場, 康山道","康怡廣場/<br/>康怡廣場, 康山道","康怡广场/<br/>康怡广场, 康山道",hktransit,"KORNHILL PLAZA/<br/>Kornhill Plaza, Kornhill Road","康怡廣場/<br/>康怡廣場, 康山道","KORNHILL PLAZA/<br/>Kornhill Plaza, Kornhill Road","KORNHILL PLAZA/<br/>Kornhill Plaza, Kornhill Road",22.284762947068085
"BAILEY STREET HUNG HOM/<br/>Bailey Street, Ma Tau Wai Road",114.18771532104523,"红磡庇利街/<br/>庇利街, 马头围道",4169,"紅磡庇利街/<br/>庇利街, 馬頭圍道",bus,"紅磡庇利街/<br/>庇利街, 馬頭圍道","紅磡庇利街/<br/>庇利街, 馬頭圍道","红磡庇利街/<br/>庇利街, 马头围道",hktransit,"BAILEY STREET HUNG HOM/<br/>Bailey Street, Ma Tau Wai Road","紅磡庇利街/<br/>庇利街, 馬頭圍道","BAILEY STREET HUNG HOM/<br/>Bailey Street, Ma Tau Wai Road","BAILEY STREET HUNG HOM/<br/>Bailey Street, Ma Tau Wai Road",22.311579233517996
"HOK YUEN STREET HUNG HOM/<br/>Hok Yuen Street, Ma Tau Wai Road",114.18768609793732,"红磡鹤园街/<br/>鹤园街, 马头围道",1394,"紅磡鶴園街/<br/>鶴園街, 馬頭圍道",bus,"紅磡鶴園街/<br/>鶴園街, 馬頭圍道","紅磡鶴園街/<br/>鶴園街, 馬頭圍道","红磡鹤园街/<br/>鹤园街, 马头围道",hktransit,"HOK YUEN STREET HUNG HOM/<br/>Hok Yuen Street, Ma Tau Wai Road","紅磡鶴園街/<br/>鶴園街, 馬頭圍道","HOK YUEN STREET HUNG HOM/<br/>Hok Yuen Street, Ma Tau Wai Road","HOK YUEN STREET HUNG HOM/<br/>Hok Yuen Street, Ma Tau Wai Road",22.310197553090756
"VICTORIA PARK GLOUCESTER ROAD/<br/>Victoria Park, Gloucester Road",114.18745088777976,"告士打道维园/<br/>维多利亚公园, 告士打道",746,"告士打道維園/<br/>維多利亞公園, 告士打道",bus,"告士打道維園/<br/>維多利亞公園, 告士打道","告士打道維園/<br/>維多利亞公園, 告士打道","告士打道维园/<br/>维多利亚公园, 告士打道",hktransit,"VICTORIA PARK GLOUCESTER ROAD/<br/>Victoria Park, Gloucester Road","告士打道維園/<br/>維多利亞公園, 告士打道","VICTORIA PARK GLOUCESTER ROAD/<br/>Victoria Park, Gloucester Road","VICTORIA PARK GLOUCESTER ROAD/<br/>Victoria Park, Gloucester Road",22.280008201532677
"NGAN MOK STREET/<br/>Ngan Mok Street, King's Road",114.1924484606715,"银幕街/<br/>银幕街, 英皇道",3178,"銀幕街/<br/>銀幕街, 英皇道",bus,"銀幕街/<br/>銀幕街, 英皇道","銀幕街/<br/>銀幕街, 英皇道","银幕街/<br/>银幕街, 英皇道",hktransit,"NGAN MOK STREET/<br/>Ngan Mok Street, King's Road","銀幕街/<br/>銀幕街, 英皇道","NGAN MOK STREET/<br/>Ngan Mok Street, King's Road","NGAN MOK STREET/<br/>Ngan Mok Street, King's Road",22.283611021392097
"7 SEAS SHOPPING CENTRE/<br/>7 Seas Shopping Centre, King's Road",114.19290497935143,"七海商业中心/<br/>七海商业中心, 英皇道",139,"七海商業中心/<br/>七海商業中心, 英皇道",bus,"七海商業中心/<br/>七海商業中心, 英皇道","七海商業中心/<br/>七海商業中心, 英皇道","七海商业中心/<br/>七海商业中心, 英皇道",hktransit,"7 SEAS SHOPPING CENTRE/<br/>7 Seas Shopping Centre, King's Road","七海商業中心/<br/>七海商業中心, 英皇道","7 SEAS SHOPPING CENTRE/<br/>7 Seas Shopping Centre, King's Road","7 SEAS SHOPPING CENTRE/<br/>7 Seas Shopping Centre, King's Road",22.287584454796242
"TIN CHONG STREET/<br/>Tin Chong Street, King's Road",114.19507894753825,"电厂街/<br/>电厂街, 英皇道",140,"電廠街/<br/>電廠街, 英皇道",bus,"電廠街/<br/>電廠街, 英皇道","電廠街/<br/>電廠街, 英皇道","电厂街/<br/>电厂街, 英皇道",hktransit,"TIN CHONG STREET/<br/>Tin Chong Street, King's Road","電廠街/<br/>電廠街, 英皇道","TIN CHONG STREET/<br/>Tin Chong Street, King's Road","TIN CHONG STREET/<br/>Tin Chong Street, King's Road",22.290076678282418
"TONG SHUI ROAD/<br/>Tong Shui Road, King's Road",114.19785438043728,"糖水道/<br/>糖水道, 英皇道",141,"糖水道/<br/>糖水道, 英皇道",bus,"糖水道/<br/>糖水道, 英皇道","糖水道/<br/>糖水道, 英皇道","糖水道/<br/>糖水道, 英皇道",hktransit,"TONG SHUI ROAD/<br/>Tong Shui Road, King's Road","糖水道/<br/>糖水道, 英皇道","TONG SHUI ROAD/<br/>Tong Shui Road, King's Road","TONG SHUI ROAD/<br/>Tong Shui Road, King's Road",22.290780731322034
"ISLAND PLACE/<br/>Island Place, King's Road",114.20244453595552,"港运城/<br/>港运城, 英皇道",143,"港運城/<br/>港運城, 英皇道",bus,"港運城/<br/>港運城, 英皇道","港運城/<br/>港運城, 英皇道","港运城/<br/>港运城, 英皇道",hktransit,"ISLAND PLACE/<br/>Island Place, King's Road","港運城/<br/>港運城, 英皇道","ISLAND PLACE/<br/>Island Place, King's Road","ISLAND PLACE/<br/>Island Place, King's Road",22.291701195548026
"HEALTHY VILLAGE/<br/>Healthy Village, King's Road",114.2063650610847,"健康村/<br/>健康村, 英皇道",144,"健康村/<br/>健康村, 英皇道",bus,"健康村/<br/>健康村, 英皇道","健康村/<br/>健康村, 英皇道","健康村/<br/>健康村, 英皇道",hktransit,"HEALTHY VILLAGE/<br/>Healthy Village, King's Road","健康村/<br/>健康村, 英皇道","HEALTHY VILLAGE/<br/>Healthy Village, King's Road","HEALTHY VILLAGE/<br/>Healthy Village, King's Road",22.292115938131825
"MODEL HOUSING ESTATE/<br/>Model Housing Estate, King's Road",114.2079855387608,"模范邨/<br/>模范邨, 英皇道",3263,"模範邨/<br/>模範邨, 英皇道",bus,"模範邨/<br/>模範邨, 英皇道","模範邨/<br/>模範邨, 英皇道","模范邨/<br/>模范邨, 英皇道",hktransit,"MODEL HOUSING ESTATE/<br/>Model Housing Estate, King's Road","模範邨/<br/>模範邨, 英皇道","MODEL HOUSING ESTATE/<br/>Model Housing Estate, King's Road","MODEL HOUSING ESTATE/<br/>Model Housing Estate, King's Road",22.29164604267812
"WALKER ROAD/<br/>Walker Road, Wuhu Street",114.18462879728035,"获嘉道/<br/>获嘉道, 芜湖街",9022,"獲嘉道/<br/>獲嘉道, 蕪湖街",bus,"獲嘉道/<br/>獲嘉道, 蕪湖街","獲嘉道/<br/>獲嘉道, 蕪湖街","获嘉道/<br/>获嘉道, 芜湖街",hktransit,"WALKER ROAD/<br/>Walker Road, Wuhu Street","獲嘉道/<br/>獲嘉道, 蕪湖街","WALKER ROAD/<br/>Walker Road, Wuhu Street","WALKER ROAD/<br/>Walker Road, Wuhu Street",22.308021352906884
TAI SHING STREET/<br/>Tai Shing Street,114.19330874166535,大成街/<br/>大成街,7059,大成街/<br/>大成街,bus,大成街/<br/>大成街,大成街/<br/>大成街,大成街/<br/>大成街,hktransit,TAI SHING STREET/<br/>Tai Shing Street,大成街/<br/>大成街,TAI SHING STREET/<br/>Tai Shing Street,TAI SHING STREET/<br/>Tai Shing Street,22.33793001835398
WONG TAI SIN BUS TERMINUS/<br/>Wong Tai Sin,114.19497874169838,黄大仙总站/<br/>黄大仙,7026,黃大仙總站/<br/>黃大仙,bus,黃大仙總站/<br/>黃大仙,黃大仙總站/<br/>黃大仙,黄大仙总站/<br/>黄大仙,hktransit,WONG TAI SIN BUS TERMINUS/<br/>Wong Tai Sin,黃大仙總站/<br/>黃大仙,WONG TAI SIN BUS TERMINUS/<br/>Wong Tai Sin,WONG TAI SIN BUS TERMINUS/<br/>Wong Tai Sin,22.340657072712023
"METROPOLE BUILDING/<br/>Metropole Building, King's Road",114.1994361454808,"新都城大厦/<br/>新都城大厦, 英皇道",59,"新都城大廈/<br/>新都城大廈, 英皇道",bus,"新都城大廈/<br/>新都城大廈, 英皇道","新都城大廈/<br/>新都城大廈, 英皇道","新都城大厦/<br/>新都城大厦, 英皇道",hktransit,"METROPOLE BUILDING/<br/>Metropole Building, King's Road","新都城大廈/<br/>新都城大廈, 英皇道","METROPOLE BUILDING/<br/>Metropole Building, King's Road","METROPOLE BUILDING/<br/>Metropole Building, King's Road",22.290870824961804
"CHEUNG HONG STREET/<br/>Cheung Hong Street, King's Road",114.1960687645048,"长康街/<br/>长康街, 英皇道",228,"長康街/<br/>長康街, 英皇道",bus,"長康街/<br/>長康街, 英皇道","長康街/<br/>長康街, 英皇道","长康街/<br/>长康街, 英皇道",hktransit,"CHEUNG HONG STREET/<br/>Cheung Hong Street, King's Road","長康街/<br/>長康街, 英皇道","CHEUNG HONG STREET/<br/>Cheung Hong Street, King's Road","CHEUNG HONG STREET/<br/>Cheung Hong Street, King's Road",22.29018493148601
"TSING FUNG STREET/<br/>Tsing Fung Street, King's Road",114.1929628858764,"清风街/<br/>清风街, 英皇道",63,"清風街/<br/>清風街, 英皇道",bus,"清風街/<br/>清風街, 英皇道","清風街/<br/>清風街, 英皇道","清风街/<br/>清风街, 英皇道",hktransit,"TSING FUNG STREET/<br/>Tsing Fung Street, King's Road","清風街/<br/>清風街, 英皇道","TSING FUNG STREET/<br/>Tsing Fung Street, King's Road","TSING FUNG STREET/<br/>Tsing Fung Street, King's Road",22.28483010657284
"MARSH STREET/<br/>Marsh Street, Wuhu Street",114.18622039222167,"孖庶街/<br/>孖庶街, 芜湖街",4260,"孖庶街/<br/>孖庶街, 蕪湖街",bus,"孖庶街/<br/>孖庶街, 蕪湖街","孖庶街/<br/>孖庶街, 蕪湖街","孖庶街/<br/>孖庶街, 芜湖街",hktransit,"MARSH STREET/<br/>Marsh Street, Wuhu Street","孖庶街/<br/>孖庶街, 蕪湖街","MARSH STREET/<br/>Marsh Street, Wuhu Street","MARSH STREET/<br/>Marsh Street, Wuhu Street",22.307199483289004
"NAM ON LANE/<br/>Nam On Lane, Shau Kei Wan Road",114.2268744518302,"南安里/<br/>南安里, 筲箕湾道",3268,"南安里/<br/>南安里, 筲箕灣道",bus,"南安里/<br/>南安里, 筲箕灣道","南安里/<br/>南安里, 筲箕灣道","南安里/<br/>南安里, 筲箕湾道",hktransit,"NAM ON LANE/<br/>Nam On Lane, Shau Kei Wan Road","南安里/<br/>南安里, 筲箕灣道","NAM ON LANE/<br/>Nam On Lane, Shau Kei Wan Road","NAM ON LANE/<br/>Nam On Lane, Shau Kei Wan Road",22.27795991213727
"A KUNG NGAM ROAD/<br/>A Kung Ngam Road, Chai Wan Road",114.23117163550545,"阿公岩道/<br/>阿公岩道, 柴湾道",33,"阿公岩道/<br/>阿公岩道, 柴灣道",bus,"阿公岩道/<br/>阿公岩道, 柴灣道","阿公岩道/<br/>阿公岩道, 柴灣道","阿公岩道/<br/>阿公岩道, 柴湾道",hktransit,"A KUNG NGAM ROAD/<br/>A Kung Ngam Road, Chai Wan Road","阿公岩道/<br/>阿公岩道, 柴灣道","A KUNG NGAM ROAD/<br/>A Kung Ngam Road, Chai Wan Road","A KUNG NGAM ROAD/<br/>A Kung Ngam Road, Chai Wan Road",22.27461719421833
"LEI YUE MUN PARK/<br/>Lei Yue Mun Park, Chai Wan Road",114.23193777324175,"鲤鱼门公园/<br/>鲤鱼门公园, 柴湾道",3002,"鯉魚門公園/<br/>鯉魚門公園, 柴灣道",bus,"鯉魚門公園/<br/>鯉魚門公園, 柴灣道","鯉魚門公園/<br/>鯉魚門公園, 柴灣道","鲤鱼门公园/<br/>鲤鱼门公园, 柴湾道",hktransit,"LEI YUE MUN PARK/<br/>Lei Yue Mun Park, Chai Wan Road","鯉魚門公園/<br/>鯉魚門公園, 柴灣道","LEI YUE MUN PARK/<br/>Lei Yue Mun Park, Chai Wan Road","LEI YUE MUN PARK/<br/>Lei Yue Mun Park, Chai Wan Road",22.27362356542978
"EASTERN HOSPITAL/<br/>Eastern Hospital, Chai Wan Road",114.23365311231193,"东区医院/<br/>东区医院, 柴湾道",36,"東區醫院/<br/>東區醫院, 柴灣道",bus,"東區醫院/<br/>東區醫院, 柴灣道","東區醫院/<br/>東區醫院, 柴灣道","东区医院/<br/>东区医院, 柴湾道",hktransit,"EASTERN HOSPITAL/<br/>Eastern Hospital, Chai Wan Road","東區醫院/<br/>東區醫院, 柴灣道","EASTERN HOSPITAL/<br/>Eastern Hospital, Chai Wan Road","EASTERN HOSPITAL/<br/>Eastern Hospital, Chai Wan Road",22.268529690471965
"HONG MAN STREET/<br/>Hong Man Street, Chai Wan Road",114.23459261172181,"康民街/<br/>康民街, 柴湾道",155,"康民街/<br/>康民街, 柴灣道",bus,"康民街/<br/>康民街, 柴灣道","康民街/<br/>康民街, 柴灣道","康民街/<br/>康民街, 柴湾道",hktransit,"HONG MAN STREET/<br/>Hong Man Street, Chai Wan Road","康民街/<br/>康民街, 柴灣道","HONG MAN STREET/<br/>Hong Man Street, Chai Wan Road","HONG MAN STREET/<br/>Hong Man Street, Chai Wan Road",22.264537811782464
"HING TSUI HOUSE HING WAH ESTATE/<br/>Hing Tsui House Hing Wah Estate, Wan Tsui Road",114.23454341206084,"兴华邨兴翠楼/<br/>兴华邨兴翠楼, 环翠道",1560,"興華邨興翠樓/<br/>興華邨興翠樓, 環翠道",bus,"興華邨興翠樓/<br/>興華邨興翠樓, 環翠道","興華邨興翠樓/<br/>興華邨興翠樓, 環翠道","兴华邨兴翠楼/<br/>兴华邨兴翠楼, 环翠道",hktransit,"HING TSUI HOUSE HING WAH ESTATE/<br/>Hing Tsui House Hing Wah Estate, Wan Tsui Road","興華邨興翠樓/<br/>興華邨興翠樓, 環翠道","HING TSUI HOUSE HING WAH ESTATE/<br/>Hing Tsui House Hing Wah Estate, Wan Tsui Road","HING TSUI HOUSE HING WAH ESTATE/<br/>Hing Tsui House Hing Wah Estate, Wan Tsui Road",22.262858127784934
"CHEUK WAH HOUSE HING WAH ESTATE/<br/>Cheuk Wah House Hing Wah Estate, Wan Tsui Road",114.23520275145162,"兴华邨卓华楼/<br/>兴华邨卓华楼, 环翠道",3246,"興華邨卓華樓/<br/>興華邨卓華樓, 環翠道",bus,"興華邨卓華樓/<br/>興華邨卓華樓, 環翠道","興華邨卓華樓/<br/>興華邨卓華樓, 環翠道","兴华邨卓华楼/<br/>兴华邨卓华楼, 环翠道",hktransit,"CHEUK WAH HOUSE HING WAH ESTATE/<br/>Cheuk Wah House Hing Wah Estate, Wan Tsui Road","興華邨卓華樓/<br/>興華邨卓華樓, 環翠道","CHEUK WAH HOUSE HING WAH ESTATE/<br/>Cheuk Wah House Hing Wah Estate, Wan Tsui Road","CHEUK WAH HOUSE HING WAH ESTATE/<br/>Cheuk Wah House Hing Wah Estate, Wan Tsui Road",22.261891612180353
"YOUTH SQUARE/<br/>Youth Square, Wan Tsui Road",114.2368912721593,"青年广场/<br/>青年广场, 环翠道",40,"青年廣場/<br/>青年廣場, 環翠道",bus,"青年廣場/<br/>青年廣場, 環翠道","青年廣場/<br/>青年廣場, 環翠道","青年广场/<br/>青年广场, 环翠道",hktransit,"YOUTH SQUARE/<br/>Youth Square, Wan Tsui Road","青年廣場/<br/>青年廣場, 環翠道","YOUTH SQUARE/<br/>Youth Square, Wan Tsui Road","YOUTH SQUARE/<br/>Youth Square, Wan Tsui Road",22.26276697019974
"YEE TAI STREET/<br/>Yee Tai Street, Chai Wan Road",114.23884162370025,"怡泰街/<br/>怡泰街, 柴湾道",1549,"怡泰街/<br/>怡泰街, 柴灣道",bus,"怡泰街/<br/>怡泰街, 柴灣道","怡泰街/<br/>怡泰街, 柴灣道","怡泰街/<br/>怡泰街, 柴湾道",hktransit,"YEE TAI STREET/<br/>Yee Tai Street, Chai Wan Road","怡泰街/<br/>怡泰街, 柴灣道","YEE TAI STREET/<br/>Yee Tai Street, Chai Wan Road","YEE TAI STREET/<br/>Yee Tai Street, Chai Wan Road",22.26330807664727
"YUE WAN ESTATE/<br/>Yue Wan Estate, Chai Wan Road",114.24158815054774,"渔湾邨/<br/>渔湾邨, 柴湾道",43,"漁灣邨/<br/>漁灣邨, 柴灣道",bus,"漁灣邨/<br/>漁灣邨, 柴灣道","漁灣邨/<br/>漁灣邨, 柴灣道","渔湾邨/<br/>渔湾邨, 柴湾道",hktransit,"YUE WAN ESTATE/<br/>Yue Wan Estate, Chai Wan Road","漁灣邨/<br/>漁灣邨, 柴灣道","YUE WAN ESTATE/<br/>Yue Wan Estate, Chai Wan Road","YUE WAN ESTATE/<br/>Yue Wan Estate, Chai Wan Road",22.26512216604604
"HARMONY GARDEN/<br/>Harmony Garden, Siu Sai Wan Road",114.24824361784867,"富欣花园/<br/>富欣花园, 小西湾道",12983,"富欣花園/<br/>富欣花園, 小西灣道",bus,"富欣花園/<br/>富欣花園, 小西灣道","富欣花園/<br/>富欣花園, 小西灣道","富欣花园/<br/>富欣花园, 小西湾道",hktransit,"HARMONY GARDEN/<br/>Harmony Garden, Siu Sai Wan Road","富欣花園/<br/>富欣花園, 小西灣道","HARMONY GARDEN/<br/>Harmony Garden, Siu Sai Wan Road","HARMONY GARDEN/<br/>Harmony Garden, Siu Sai Wan Road",22.264622690797474
"PUI KIU PRIMARY SCHOOL/<br/>Pui Kiu Primary School, Fu Yee Road",114.25026118588883,"培侨小学/<br/>培侨小学, 富怡道",1568,"培僑小學/<br/>培僑小學, 富怡道",bus,"培僑小學/<br/>培僑小學, 富怡道","培僑小學/<br/>培僑小學, 富怡道","培侨小学/<br/>培侨小学, 富怡道",hktransit,"PUI KIU PRIMARY SCHOOL/<br/>Pui Kiu Primary School, Fu Yee Road","培僑小學/<br/>培僑小學, 富怡道","PUI KIU PRIMARY SCHOOL/<br/>Pui Kiu Primary School, Fu Yee Road","PUI KIU PRIMARY SCHOOL/<br/>Pui Kiu Primary School, Fu Yee Road",22.26369163432027
"HIU TSUI STREET/<br/>Hiu Tsui Street, Siu Sai Wan Road",114.2482240806399,"晓翠街/<br/>晓翠街, 小西湾道",2,"曉翠街/<br/>曉翠街, 小西灣道",bus,"曉翠街/<br/>曉翠街, 小西灣道","曉翠街/<br/>曉翠街, 小西灣道","晓翠街/<br/>晓翠街, 小西湾道",hktransit,"HIU TSUI STREET/<br/>Hiu Tsui Street, Siu Sai Wan Road","曉翠街/<br/>曉翠街, 小西灣道","HIU TSUI STREET/<br/>Hiu Tsui Street, Siu Sai Wan Road","HIU TSUI STREET/<br/>Hiu Tsui Street, Siu Sai Wan Road",22.264360810518372
"FOO SHING HOUSE/<br/>Fu Shing Court, Chai Wan Road",114.2454208512068,"富城阁/<br/>富城阁, 柴湾道",3,"富城閣/<br/>富城閣, 柴灣道",bus,"富城閣/<br/>富城閣, 柴灣道","富城閣/<br/>富城閣, 柴灣道","富城阁/<br/>富城阁, 柴湾道",hktransit,"FOO SHING HOUSE/<br/>Fu Shing Court, Chai Wan Road","富城閣/<br/>富城閣, 柴灣道","FOO SHING HOUSE/<br/>Fu Shing Court, Chai Wan Road","FOO SHING HOUSE/<br/>Fu Shing Court, Chai Wan Road",22.265788861044303
"LOK HIN TERRACE/<br/>Lok Hin Terrace, Chai Wan Road",114.24167537894655,"乐轩台/<br/>乐轩台, 柴湾道",4,"樂軒台/<br/>樂軒臺, 柴灣道",bus,"樂軒台/<br/>樂軒臺, 柴灣道","樂軒台/<br/>樂軒臺, 柴灣道","乐轩台/<br/>乐轩台, 柴湾道",hktransit,"LOK HIN TERRACE/<br/>Lok Hin Terrace, Chai Wan Road","樂軒台/<br/>樂軒臺, 柴灣道","LOK HIN TERRACE/<br/>Lok Hin Terrace, Chai Wan Road","LOK HIN TERRACE/<br/>Lok Hin Terrace, Chai Wan Road",22.264923456931108
"FAT KWONG STREET HUNG HOM/<br/>Fat Kwong Street, Ma Tau Wai Road",114.18753075687376,"红磡佛光街/<br/>佛光街, 马头围道",9028,"紅磡佛光街/<br/>佛光街, 馬頭圍道",bus,"紅磡佛光街/<br/>佛光街, 馬頭圍道","紅磡佛光街/<br/>佛光街, 馬頭圍道","红磡佛光街/<br/>佛光街, 马头围道",hktransit,"FAT KWONG STREET HUNG HOM/<br/>Fat Kwong Street, Ma Tau Wai Road","紅磡佛光街/<br/>佛光街, 馬頭圍道","FAT KWONG STREET HUNG HOM/<br/>Fat Kwong Street, Ma Tau Wai Road","FAT KWONG STREET HUNG HOM/<br/>Fat Kwong Street, Ma Tau Wai Road",22.309466084408683
"PAK KUNG STREET/<br/>Pak Kung Street, Ma Tau Wai Road",114.18755033979919,"北拱街/<br/>北拱街, 马头围道",12371,"北拱街/<br/>北拱街, 馬頭圍道",bus,"北拱街/<br/>北拱街, 馬頭圍道","北拱街/<br/>北拱街, 馬頭圍道","北拱街/<br/>北拱街, 马头围道",hktransit,"PAK KUNG STREET/<br/>Pak Kung Street, Ma Tau Wai Road","北拱街/<br/>北拱街, 馬頭圍道","PAK KUNG STREET/<br/>Pak Kung Street, Ma Tau Wai Road","PAK KUNG STREET/<br/>Pak Kung Street, Ma Tau Wai Road",22.311723734154988
"SHEK TONG STREET/<br/>Shek Tong Street, Ma Tau Wai Road",114.18750198009072,"石塘街/<br/>石塘街, 马头围道",4179,"石塘街/<br/>石塘街, 馬頭圍道",bus,"石塘街/<br/>石塘街, 馬頭圍道","石塘街/<br/>石塘街, 馬頭圍道","石塘街/<br/>石塘街, 马头围道",hktransit,"SHEK TONG STREET/<br/>Shek Tong Street, Ma Tau Wai Road","石塘街/<br/>石塘街, 馬頭圍道","SHEK TONG STREET/<br/>Shek Tong Street, Ma Tau Wai Road","SHEK TONG STREET/<br/>Shek Tong Street, Ma Tau Wai Road",22.31392720415539
"CHI KIANG STREET/<br/>Chi Kiang Street, To Kwa Wan Road",114.18917152025212,"浙江街/<br/>浙江街, 土瓜湾道",4180,"浙江街/<br/>浙江街, 土瓜灣道",bus,"浙江街/<br/>浙江街, 土瓜灣道","浙江街/<br/>浙江街, 土瓜灣道","浙江街/<br/>浙江街, 土瓜湾道",hktransit,"CHI KIANG STREET/<br/>Chi Kiang Street, To Kwa Wan Road","浙江街/<br/>浙江街, 土瓜灣道","CHI KIANG STREET/<br/>Chi Kiang Street, To Kwa Wan Road","CHI KIANG STREET/<br/>Chi Kiang Street, To Kwa Wan Road",22.31595897053842
"SHEUNG HEUNG ROAD/<br/>Sheung Heung Road, To Kwa Wan Road",114.19039456711154,"上乡道/<br/>上乡道, 土瓜湾道",4181,"上鄉道/<br/>上鄉道, 土瓜灣道",bus,"上鄉道/<br/>上鄉道, 土瓜灣道","上鄉道/<br/>上鄉道, 土瓜灣道","上乡道/<br/>上乡道, 土瓜湾道",hktransit,"SHEUNG HEUNG ROAD/<br/>Sheung Heung Road, To Kwa Wan Road","上鄉道/<br/>上鄉道, 土瓜灣道","SHEUNG HEUNG ROAD/<br/>Sheung Heung Road, To Kwa Wan Road","SHEUNG HEUNG ROAD/<br/>Sheung Heung Road, To Kwa Wan Road",22.317250248278395
"CHINA GAS COMPANY/<br/>China Gas Company, Ma Tau Kok Road",114.19250111719957,"中华煤气公司/<br/>中华煤气公司, 马头角道",9034,"中華煤氣公司/<br/>中華煤氣公司, 馬頭角道",bus,"中華煤氣公司/<br/>中華煤氣公司, 馬頭角道","中華煤氣公司/<br/>中華煤氣公司, 馬頭角道","中华煤气公司/<br/>中华煤气公司, 马头角道",hktransit,"CHINA GAS COMPANY/<br/>China Gas Company, Ma Tau Kok Road","中華煤氣公司/<br/>中華煤氣公司, 馬頭角道","CHINA GAS COMPANY/<br/>China Gas Company, Ma Tau Kok Road","CHINA GAS COMPANY/<br/>China Gas Company, Ma Tau Kok Road",22.32071780676104
"JUBILANT PLACE/<br/>Jubilant Place, Ma Tau Kok Road",114.18935647391405,"欣荣花园/<br/>欣荣花园, 马头角道",4183,"欣榮花園/<br/>欣榮花園, 馬頭角道",bus,"欣榮花園/<br/>欣榮花園, 馬頭角道","欣榮花園/<br/>欣榮花園, 馬頭角道","欣荣花园/<br/>欣荣花园, 马头角道",hktransit,"JUBILANT PLACE/<br/>Jubilant Place, Ma Tau Kok Road","欣榮花園/<br/>欣榮花園, 馬頭角道","JUBILANT PLACE/<br/>Jubilant Place, Ma Tau Kok Road","JUBILANT PLACE/<br/>Jubilant Place, Ma Tau Kok Road",22.32206363843255
"MA TAU KOK ROAD/<br/>Ma Tau Kok Road, Ma Tau Chung Road",114.18808507795903,"马头角道/<br/>马头角道, 马头涌道",1323,"馬頭角道/<br/>馬頭角道, 馬頭涌道",bus,"馬頭角道/<br/>馬頭角道, 馬頭涌道","馬頭角道/<br/>馬頭角道, 馬頭涌道","马头角道/<br/>马头角道, 马头涌道",hktransit,"MA TAU KOK ROAD/<br/>Ma Tau Kok Road, Ma Tau Chung Road","馬頭角道/<br/>馬頭角道, 馬頭涌道","MA TAU KOK ROAD/<br/>Ma Tau Kok Road, Ma Tau Chung Road","MA TAU KOK ROAD/<br/>Ma Tau Kok Road, Ma Tau Chung Road",22.323436381456705
"ARGYLE STREET PLAYGROUND/<br/>Argyle Street Playground, Ma Tau Chung Road",114.18953157617291,"亚皆老街球场/<br/>亚皆老街游乐场, 马头涌道",4185,"亞皆老街球場/<br/>亞皆老街遊樂場, 馬頭涌道",bus,"亞皆老街球場/<br/>亞皆老街遊樂場, 馬頭涌道","亞皆老街球場/<br/>亞皆老街遊樂場, 馬頭涌道","亚皆老街球场/<br/>亚皆老街游乐场, 马头涌道",hktransit,"ARGYLE STREET PLAYGROUND/<br/>Argyle Street Playground, Ma Tau Chung Road","亞皆老街球場/<br/>亞皆老街遊樂場, 馬頭涌道","ARGYLE STREET PLAYGROUND/<br/>Argyle Street Playground, Ma Tau Chung Road","ARGYLE STREET PLAYGROUND/<br/>Argyle Street Playground, Ma Tau Chung Road",22.326389276938524
"CHAK TSUI HOUSE WAN TSUI ESTATE/<br/>Chak Tsui House Wan Tsui Estate, Wan Tsui Road",114.2365515546619,"环翠邨泽翠楼/<br/>环翠邨泽翠楼, 环翠道",6,"環翠邨澤翠樓/<br/>環翠邨澤翠樓, 環翠道",bus,"環翠邨澤翠樓/<br/>環翠邨澤翠樓, 環翠道","環翠邨澤翠樓/<br/>環翠邨澤翠樓, 環翠道","环翠邨泽翠楼/<br/>环翠邨泽翠楼, 环翠道",hktransit,"CHAK TSUI HOUSE WAN TSUI ESTATE/<br/>Chak Tsui House Wan Tsui Estate, Wan Tsui Road","環翠邨澤翠樓/<br/>環翠邨澤翠樓, 環翠道","CHAK TSUI HOUSE WAN TSUI ESTATE/<br/>Chak Tsui House Wan Tsui Estate, Wan Tsui Road","CHAK TSUI HOUSE WAN TSUI ESTATE/<br/>Chak Tsui House Wan Tsui Estate, Wan Tsui Road",22.26242393058161
"CHEUK WAH HOUSE HING WAH ESTATE/<br/>Cheuk Wah House Hing Wah Estate, Wan Tsui Road",114.23546469400257,"兴华邨卓华楼/<br/>兴华邨卓华楼, 环翠道",7,"興華邨卓華樓/<br/>興華邨卓華樓, 環翠道",bus,"興華邨卓華樓/<br/>興華邨卓華樓, 環翠道","興華邨卓華樓/<br/>興華邨卓華樓, 環翠道","兴华邨卓华楼/<br/>兴华邨卓华楼, 环翠道",hktransit,"CHEUK WAH HOUSE HING WAH ESTATE/<br/>Cheuk Wah House Hing Wah Estate, Wan Tsui Road","興華邨卓華樓/<br/>興華邨卓華樓, 環翠道","CHEUK WAH HOUSE HING WAH ESTATE/<br/>Cheuk Wah House Hing Wah Estate, Wan Tsui Road","CHEUK WAH HOUSE HING WAH ESTATE/<br/>Cheuk Wah House Hing Wah Estate, Wan Tsui Road",22.26186442588852
"FUNG HING HOUSE HING WAH ESTATE/<br/>Fung Hing House Hing Wah Estate, Wan Tsui Road",114.23425219181738,"兴华邨丰兴楼/<br/>兴华邨丰兴楼, 环翠道",8,"興華邨豐興樓/<br/>興華邨豐興樓, 環翠道",bus,"興華邨豐興樓/<br/>興華邨豐興樓, 環翠道","興華邨豐興樓/<br/>興華邨豐興樓, 環翠道","兴华邨丰兴楼/<br/>兴华邨丰兴楼, 环翠道",hktransit,"FUNG HING HOUSE HING WAH ESTATE/<br/>Fung Hing House Hing Wah Estate, Wan Tsui Road","興華邨豐興樓/<br/>興華邨豐興樓, 環翠道","FUNG HING HOUSE HING WAH ESTATE/<br/>Fung Hing House Hing Wah Estate, Wan Tsui Road","FUNG HING HOUSE HING WAH ESTATE/<br/>Fung Hing House Hing Wah Estate, Wan Tsui Road",22.26246991284483
"STAR OF THE SEA CATHOLIC CHURCH/<br/>Star of the Sea Catholic Church, Chai Wan Road",114.2339329589838,"天主教海星堂/<br/>天主教海星堂, 柴湾道",9,"天主教海星堂/<br/>天主教海星堂, 柴灣道",bus,"天主教海星堂/<br/>天主教海星堂, 柴灣道","天主教海星堂/<br/>天主教海星堂, 柴灣道","天主教海星堂/<br/>天主教海星堂, 柴湾道",hktransit,"STAR OF THE SEA CATHOLIC CHURCH/<br/>Star of the Sea Catholic Church, Chai Wan Road","天主教海星堂/<br/>天主教海星堂, 柴灣道","STAR OF THE SEA CATHOLIC CHURCH/<br/>Star of the Sea Catholic Church, Chai Wan Road","STAR OF THE SEA CATHOLIC CHURCH/<br/>Star of the Sea Catholic Church, Chai Wan Road",22.264772841955235
"HING MAN ESTATE/<br/>Hing Man Estate, Chai Wan Road",114.23338121864141,"兴民邨/<br/>兴民邨, 柴湾道",10,"興民邨/<br/>興民邨, 柴灣道",bus,"興民邨/<br/>興民邨, 柴灣道","興民邨/<br/>興民邨, 柴灣道","兴民邨/<br/>兴民邨, 柴湾道",hktransit,"HING MAN ESTATE/<br/>Hing Man Estate, Chai Wan Road","興民邨/<br/>興民邨, 柴灣道","HING MAN ESTATE/<br/>Hing Man Estate, Chai Wan Road","HING MAN ESTATE/<br/>Hing Man Estate, Chai Wan Road",22.26796988517358
"SHAN TSUI COURT/<br/>Shan Tsui Court, Chai Wan Road",114.23356617986622,"山翠苑/<br/>山翠苑, 柴湾道",11,"山翠苑/<br/>山翠苑, 柴灣道",bus,"山翠苑/<br/>山翠苑, 柴灣道","山翠苑/<br/>山翠苑, 柴灣道","山翠苑/<br/>山翠苑, 柴湾道",hktransit,"SHAN TSUI COURT/<br/>Shan Tsui Court, Chai Wan Road","山翠苑/<br/>山翠苑, 柴灣道","SHAN TSUI COURT/<br/>Shan Tsui Court, Chai Wan Road","SHAN TSUI COURT/<br/>Shan Tsui Court, Chai Wan Road",22.269496000128903
"SHAU KEI WAN EAST GOVERNMENT SECONDARY SCHOOL/<br/>Shau Kei Wan East Government Secondary School, Chai Wan Road",114.23264561209801,"筲箕湾东官立中学/<br/>筲箕湾东官立中学, 柴湾道",12,"筲箕灣東官立中學/<br/>筲箕灣東官立中學, 柴灣道",bus,"筲箕灣東官立中學/<br/>筲箕灣東官立中學, 柴灣道","筲箕灣東官立中學/<br/>筲箕灣東官立中學, 柴灣道","筲箕湾东官立中学/<br/>筲箕湾东官立中学, 柴湾道",hktransit,"SHAU KEI WAN EAST GOVERNMENT SECONDARY SCHOOL/<br/>Shau Kei Wan East Government Secondary School, Chai Wan Road","筲箕灣東官立中學/<br/>筲箕灣東官立中學, 柴灣道","SHAU KEI WAN EAST GOVERNMENT SECONDARY SCHOOL/<br/>Shau Kei Wan East Government Secondary School, Chai Wan Road","SHAU KEI WAN EAST GOVERNMENT SECONDARY SCHOOL/<br/>Shau Kei Wan East Government Secondary School, Chai Wan Road",22.272449340099463
"A KUNG NGAM ROAD/<br/>A Kung Ngam Road, Chai Wan Road",114.23089025221596,"阿公岩道/<br/>阿公岩道, 柴湾道",13,"阿公岩道/<br/>阿公岩道, 柴灣道",bus,"阿公岩道/<br/>阿公岩道, 柴灣道","阿公岩道/<br/>阿公岩道, 柴灣道","阿公岩道/<br/>阿公岩道, 柴湾道",hktransit,"A KUNG NGAM ROAD/<br/>A Kung Ngam Road, Chai Wan Road","阿公岩道/<br/>阿公岩道, 柴灣道","A KUNG NGAM ROAD/<br/>A Kung Ngam Road, Chai Wan Road","A KUNG NGAM ROAD/<br/>A Kung Ngam Road, Chai Wan Road",22.274617288134618
"NAM ON LANE/<br/>Nam On Lane, Shau Kei Wan Road",114.22721385663661,"南安里/<br/>南安里, 筲箕湾道",100,"南安里/<br/>南安里, 筲箕灣道",bus,"南安里/<br/>南安里, 筲箕灣道","南安里/<br/>南安里, 筲箕灣道","南安里/<br/>南安里, 筲箕湾道",hktransit,"NAM ON LANE/<br/>Nam On Lane, Shau Kei Wan Road","南安里/<br/>南安里, 筲箕灣道","NAM ON LANE/<br/>Nam On Lane, Shau Kei Wan Road","NAM ON LANE/<br/>Nam On Lane, Shau Kei Wan Road",22.27739087695543
"WAN TSUI MARKET/<br/>Wan Tsui Shopping Centre, Chai Wan Road",114.23875422541825,"环翠街市/<br/>环翠商场, 柴湾道",5,"環翠街市/<br/>環翠商場, 柴灣道",bus,"環翠街市/<br/>環翠商場, 柴灣道","環翠街市/<br/>環翠商場, 柴灣道","环翠街市/<br/>环翠商场, 柴湾道",hktransit,"WAN TSUI MARKET/<br/>Wan Tsui Shopping Centre, Chai Wan Road","環翠街市/<br/>環翠商場, 柴灣道","WAN TSUI MARKET/<br/>Wan Tsui Shopping Centre, Chai Wan Road","WAN TSUI MARKET/<br/>Wan Tsui Shopping Centre, Chai Wan Road",22.263127496921047
ISLAND RESORT BUS TERMINUS/<br/>Siu Sai Wan (Island Resort),114.25096100820305,蓝湾半岛巴士总站/<br/>小西湾 (蓝湾半岛),1546,藍灣半島巴士總站/<br/>小西灣 (藍灣半島),bus,藍灣半島巴士總站/<br/>小西灣 (藍灣半島),藍灣半島巴士總站/<br/>小西灣 (藍灣半島),蓝湾半岛巴士总站/<br/>小西湾 (蓝湾半岛),hktransit,ISLAND RESORT BUS TERMINUS/<br/>Siu Sai Wan (Island Resort),藍灣半島巴士總站/<br/>小西灣 (藍灣半島),ISLAND RESORT BUS TERMINUS/<br/>Siu Sai Wan (Island Resort),ISLAND RESORT BUS TERMINUS/<br/>Siu Sai Wan (Island Resort),22.266102499967975
"CHEERFUL GARDEN/<br/>Cheerful Garden, Fu Yee Road",114.25019312045455,"富怡花园/<br/>富怡花园, 富怡道",7125,"富怡花園/<br/>富怡花園, 富怡道",bus,"富怡花園/<br/>富怡花園, 富怡道","富怡花園/<br/>富怡花園, 富怡道","富怡花园/<br/>富怡花园, 富怡道",hktransit,"CHEERFUL GARDEN/<br/>Cheerful Garden, Fu Yee Road","富怡花園/<br/>富怡花園, 富怡道","CHEERFUL GARDEN/<br/>Cheerful Garden, Fu Yee Road","CHEERFUL GARDEN/<br/>Cheerful Garden, Fu Yee Road",22.263402684229188
"NING YUEN STREET, SAN PO KONG/<br/>Ning Yuen Street, Choi Hung Road",114.1948614071713,"新蒲岗宁远街/<br/>宁远街, 彩虹道",4161,"新蒲崗寧遠街/<br/>寧遠街, 彩虹道",bus,"新蒲崗寧遠街/<br/>寧遠街, 彩虹道","新蒲崗寧遠街/<br/>寧遠街, 彩虹道","新蒲岗宁远街/<br/>宁远街, 彩虹道",hktransit,"NING YUEN STREET, SAN PO KONG/<br/>Ning Yuen Street, Choi Hung Road","新蒲崗寧遠街/<br/>寧遠街, 彩虹道","NING YUEN STREET, SAN PO KONG/<br/>Ning Yuen Street, Choi Hung Road","NING YUEN STREET, SAN PO KONG/<br/>Ning Yuen Street, Choi Hung Road",22.334082827746002
"FORTRESS HILL STATION/<br/>Fortress Hill Station, King's Road",114.19365224317484,"炮台山站/<br/>炮台山站, 英皇道",62,"炮台山站/<br/>炮台山站, 英皇道",bus,"炮台山站/<br/>炮台山站, 英皇道","炮台山站/<br/>炮台山站, 英皇道","炮台山站/<br/>炮台山站, 英皇道",hktransit,"FORTRESS HILL STATION/<br/>Fortress Hill Station, King's Road","炮台山站/<br/>炮台山站, 英皇道","FORTRESS HILL STATION/<br/>Fortress Hill Station, King's Road","FORTRESS HILL STATION/<br/>Fortress Hill Station, King's Road",22.288198461850946
"HUNG HOM MARKET/<br/>Hung Hom Market, Ma Tau Wai Road",114.187258866798,"红磡街市/<br/>红磡街市, 马头围道",1395,"紅磡街市/<br/>紅磡街市, 馬頭圍道",bus,"紅磡街市/<br/>紅磡街市, 馬頭圍道","紅磡街市/<br/>紅磡街市, 馬頭圍道","红磡街市/<br/>红磡街市, 马头围道",hktransit,"HUNG HOM MARKET/<br/>Hung Hom Market, Ma Tau Wai Road","紅磡街市/<br/>紅磡街市, 馬頭圍道","HUNG HOM MARKET/<br/>Hung Hom Market, Ma Tau Wai Road","HUNG HOM MARKET/<br/>Hung Hom Market, Ma Tau Wai Road",22.307551613545847
"REGAL ORIENTAL HOTEL/<br/>Regal Oriental Hotel, Prince Edward Road East",114.19101677199268,"富豪东方酒店/<br/>富豪东方酒店, 太子道东",8097,"富豪東方酒店/<br/>富豪東方酒店, 太子道東",bus,"富豪東方酒店/<br/>富豪東方酒店, 太子道東","富豪東方酒店/<br/>富豪東方酒店, 太子道東","富豪东方酒店/<br/>富豪东方酒店, 太子道东",hktransit,"REGAL ORIENTAL HOTEL/<br/>Regal Oriental Hotel, Prince Edward Road East","富豪東方酒店/<br/>富豪東方酒店, 太子道東","REGAL ORIENTAL HOTEL/<br/>Regal Oriental Hotel, Prince Edward Road East","REGAL ORIENTAL HOTEL/<br/>Regal Oriental Hotel, Prince Edward Road East",22.327463793499017
"SUNG WONG TOI ROAD/<br/>Sung Wong Toi Road, Ma Tau Chung Road",114.18866751148612,"宋皇台道/<br/>宋皇台道, 马头涌道",4162,"宋皇臺道/<br/>宋皇臺道, 馬頭涌道",bus,"宋皇臺道/<br/>宋皇臺道, 馬頭涌道","宋皇臺道/<br/>宋皇臺道, 馬頭涌道","宋皇台道/<br/>宋皇台道, 马头涌道",hktransit,"SUNG WONG TOI ROAD/<br/>Sung Wong Toi Road, Ma Tau Chung Road","宋皇臺道/<br/>宋皇臺道, 馬頭涌道","SUNG WONG TOI ROAD/<br/>Sung Wong Toi Road, Ma Tau Chung Road","SUNG WONG TOI ROAD/<br/>Sung Wong Toi Road, Ma Tau Chung Road",22.32413169536907
"PAK TAI STREET/<br/>Pak Tai Street, Mok Cheong Street",114.1898612869398,"北帝街/<br/>北帝街, 木厂街",13143,"北帝街/<br/>北帝街, 木廠街",bus,"北帝街/<br/>北帝街, 木廠街","北帝街/<br/>北帝街, 木廠街","北帝街/<br/>北帝街, 木厂街",hktransit,"PAK TAI STREET/<br/>Pak Tai Street, Mok Cheong Street","北帝街/<br/>北帝街, 木廠街","PAK TAI STREET/<br/>Pak Tai Street, Mok Cheong Street","PAK TAI STREET/<br/>Pak Tai Street, Mok Cheong Street",22.323065994227044
"TAI TAM ROAD/<br/>Tai Tam Road, Chai Wan Road",114.23337280451453,"大潭道/<br/>大潭道, 柴湾道",35,"大潭道/<br/>大潭道, 柴灣道",bus,"大潭道/<br/>大潭道, 柴灣道","大潭道/<br/>大潭道, 柴灣道","大潭道/<br/>大潭道, 柴湾道",hktransit,"TAI TAM ROAD/<br/>Tai Tam Road, Chai Wan Road","大潭道/<br/>大潭道, 柴灣道","TAI TAM ROAD/<br/>Tai Tam Road, Chai Wan Road","TAI TAM ROAD/<br/>Tai Tam Road, Chai Wan Road",22.27117576770367
"KOWAY COURT/<br/>Koway Court, Chai Wan Road",114.23373004907134,"高威阁/<br/>高威阁, 柴湾道",3253,"高威閣/<br/>高威閣, 柴灣道",bus,"高威閣/<br/>高威閣, 柴灣道","高威閣/<br/>高威閣, 柴灣道","高威阁/<br/>高威阁, 柴湾道",hktransit,"KOWAY COURT/<br/>Koway Court, Chai Wan Road","高威閣/<br/>高威閣, 柴灣道","KOWAY COURT/<br/>Koway Court, Chai Wan Road","KOWAY COURT/<br/>Koway Court, Chai Wan Road",22.26684093220984
"LUNG WAI HOUSE/<br/>Lung Wai House Lower Wong Tai Sin Estate, Tung Tau Tsuen Road",114.19424089894667,"龙慧楼/<br/>黄大仙下邨龙慧楼, 东头村道",7060,"龍慧樓/<br/>黃大仙下邨龍慧樓, 東頭村道",bus,"龍慧樓/<br/>黃大仙下邨龍慧樓, 東頭村道","龍慧樓/<br/>黃大仙下邨龍慧樓, 東頭村道","龙慧楼/<br/>黄大仙下邨龙慧楼, 东头村道",hktransit,"LUNG WAI HOUSE/<br/>Lung Wai House Lower Wong Tai Sin Estate, Tung Tau Tsuen Road","龍慧樓/<br/>黃大仙下邨龍慧樓, 東頭村道","LUNG WAI HOUSE/<br/>Lung Wai House Lower Wong Tai Sin Estate, Tung Tau Tsuen Road","LUNG WAI HOUSE/<br/>Lung Wai House Lower Wong Tai Sin Estate, Tung Tau Tsuen Road",22.34003404427524
KAI YIP BUS TERMINUS,114.20854698219868,启业总站,826,啟業總站,bus,啟業總站,啟業總站,启业总站,hktransit,KAI YIP BUS TERMINUS,啟業總站,KAI YIP BUS TERMINUS,KAI YIP BUS TERMINUS,22.32845467567985
BLOCK 13 RICHLAND GARDENS,114.20683912775328,丽晶花园13座,798,麗晶花園13座,bus,麗晶花園13座,麗晶花園13座,丽晶花园13座,hktransit,BLOCK 13 RICHLAND GARDENS,麗晶花園13座,BLOCK 13 RICHLAND GARDENS,BLOCK 13 RICHLAND GARDENS,22.330821013424195
THE LATITUDE,114.19670558189299,誉．港湾,4081,譽．港灣,bus,譽．港灣,譽．港灣,誉．港湾,hktransit,THE LATITUDE,譽．港灣,THE LATITUDE,THE LATITUDE,22.33300797324136
KING TAI STREET,114.19923927718985,景泰街,822,景泰街,bus,景泰街,景泰街,景泰街,hktransit,KING TAI STREET,景泰街,KING TAI STREET,KING TAI STREET,22.33420870963631
TRADE AND INDUSTRY TOWER,114.19789940293046,工业贸易大楼,13205,工業貿易大樓,bus,工業貿易大樓,工業貿易大樓,工业贸易大楼,hktransit,TRADE AND INDUSTRY TOWER,工業貿易大樓,TRADE AND INDUSTRY TOWER,TRADE AND INDUSTRY TOWER,22.33214991739348
KAI TAK (KAI CHING ESTATE),114.20388851548742,启德(启晴邨),13106,啟德(啟晴邨),bus,啟德(啟晴邨),啟德(啟晴邨),启德(启晴邨),hktransit,KAI TAK (KAI CHING ESTATE),啟德(啟晴邨),KAI TAK (KAI CHING ESTATE),KAI TAK (KAI CHING ESTATE),22.33207678354494
BLOCK 8 RICHLAND GARDENS,114.20601416794362,丽晶花园第8座,825,麗晶花園第8座,bus,麗晶花園第8座,麗晶花園第8座,丽晶花园第8座,hktransit,BLOCK 8 RICHLAND GARDENS,麗晶花園第8座,BLOCK 8 RICHLAND GARDENS,BLOCK 8 RICHLAND GARDENS,22.33137202948838
MA TAU KOK ROAD,114.18766760678656,马头角道,9025,馬頭角道,bus,馬頭角道,馬頭角道,马头角道,hktransit,MA TAU KOK ROAD,馬頭角道,MA TAU KOK ROAD,MA TAU KOK ROAD,22.32210891307573
TO KWA WAN MARKET,114.18773519134675,土瓜湾街市,4122,土瓜灣街市,bus,土瓜灣街市,土瓜灣街市,土瓜湾街市,hktransit,TO KWA WAN MARKET,土瓜灣街市,TO KWA WAN MARKET,TO KWA WAN MARKET,22.317494275040325
CHI KIANG ST. PLAYGROUND,114.18727872798868,浙江街游乐场,806,浙江街遊樂場,bus,浙江街遊樂場,浙江街遊樂場,浙江街游乐场,hktransit,CHI KIANG ST. PLAYGROUND,浙江街遊樂場,CHI KIANG ST. PLAYGROUND,CHI KIANG ST. PLAYGROUND,22.313611147670738
PAK KUNG STREET HUNG HOM,114.18618188385182,红磡北拱街,807,紅磡北拱街,bus,紅磡北拱街,紅磡北拱街,红磡北拱街,hktransit,PAK KUNG STREET HUNG HOM,紅磡北拱街,PAK KUNG STREET HUNG HOM,PAK KUNG STREET HUNG HOM,22.311886369688633
PENNINGTON STREET,114.18602441820306,边宁顿街,3216,邊寧頓街,bus,邊寧頓街,邊寧頓街,边宁顿街,hktransit,PENNINGTON STREET,邊寧頓街,PENNINGTON STREET,PENNINGTON STREET,22.278599508933393
ST. PAUL CONVENT SCHOOL,114.18808151217966,圣保禄书院,12584,聖保祿書院,bus,聖保祿書院,聖保祿書院,圣保禄书院,hktransit,ST. PAUL CONVENT SCHOOL,聖保祿書院,ST. PAUL CONVENT SCHOOL,ST. PAUL CONVENT SCHOOL,22.278924482408783
FONTANA GARDENS,114.1903811137344,豪园,279,豪園,bus,豪園,豪園,豪园,hktransit,FONTANA GARDENS,豪園,FONTANA GARDENS,FONTANA GARDENS,22.278400529650025
ILLUMINATION TERRACE,114.19360239684922,光明台,280,光明台,bus,光明台,光明台,光明台,hktransit,ILLUMINATION TERRACE,光明台,ILLUMINATION TERRACE,ILLUMINATION TERRACE,22.277072724671537
TAK CHUEN LAU LAI TAK TSUEN,114.19359289402023,励德邨德全楼,1513,勵德邨德全樓,bus,勵德邨德全樓,勵德邨德全樓,励德邨德全楼,hktransit,TAK CHUEN LAU LAI TAK TSUEN,勵德邨德全樓,TAK CHUEN LAU LAI TAK TSUEN,TAK CHUEN LAU LAI TAK TSUEN,22.278752424739142
YEE KING ROAD,114.19398139937576,怡景道,282,怡景道,bus,怡景道,怡景道,怡景道,hktransit,YEE KING ROAD,怡景道,YEE KING ROAD,YEE KING ROAD,22.28185892349024
NORTH POINT GOVT PRIMARY SCHOOL (CLOUD VIEW RD),114.19506844216119,北角官立小学(云景道),283,北角官立小學(雲景道),bus,北角官立小學(雲景道),北角官立小學(雲景道),北角官立小学(云景道),hktransit,NORTH POINT GOVT PRIMARY SCHOOL (CLOUD VIEW RD),北角官立小學(雲景道),NORTH POINT GOVT PRIMARY SCHOOL (CLOUD VIEW RD),NORTH POINT GOVT PRIMARY SCHOOL (CLOUD VIEW RD),22.283899728443206
SEAVIEW GARDEN,114.19617481199239,海景台,53,海景台,bus,海景台,海景台,海景台,hktransit,SEAVIEW GARDEN,海景台,SEAVIEW GARDEN,SEAVIEW GARDEN,22.28512776643359
HANKING COURT,114.19701930410115,恒景园,54,恒景園,bus,恒景園,恒景園,恒景园,hktransit,HANKING COURT,恒景園,HANKING COURT,HANKING COURT,22.287069249273284
SUMMIT COURT,114.19886304484372,云峯大厦,55,雲峯大廈,bus,雲峯大廈,雲峯大廈,云峯大厦,hktransit,SUMMIT COURT,雲峯大廈,SUMMIT COURT,SUMMIT COURT,22.287267683323936
BRAEMAR HILL MANSIONS (HKSYU),114.19961961514569,赛西湖大厦(树仁大学),289,賽西湖大廈(樹仁大學),bus,賽西湖大廈(樹仁大學),賽西湖大廈(樹仁大學),赛西湖大厦(树仁大学),hktransit,BRAEMAR HILL MANSIONS (HKSYU),賽西湖大廈(樹仁大學),BRAEMAR HILL MANSIONS (HKSYU),BRAEMAR HILL MANSIONS (HKSYU),22.28528084009103
FLORA GARDEN,114.19738806847509,富丽园,293,富麗園,bus,富麗園,富麗園,富丽园,hktransit,FLORA GARDEN,富麗園,FLORA GARDEN,FLORA GARDEN,22.28722272369365
MAIDEN COURT,114.19679603482983,万德阁,294,萬德閣,bus,萬德閣,萬德閣,万德阁,hktransit,MAIDEN COURT,萬德閣,MAIDEN COURT,MAIDEN COURT,22.286482285920165
EVELYN TOWERS,114.19622332252229,云景台,295,雲景台,bus,雲景台,雲景台,云景台,hktransit,EVELYN TOWERS,雲景台,EVELYN TOWERS,EVELYN TOWERS,22.285073576851858
NORTH POINT GOVT PRIMARY SCHOOL (CLOUD VIEW RD),114.19497130096268,北角官立小学(云景道),3174,北角官立小學(雲景道),bus,北角官立小學(雲景道),北角官立小學(雲景道),北角官立小学(云景道),hktransit,NORTH POINT GOVT PRIMARY SCHOOL (CLOUD VIEW RD),北角官立小學(雲景道),NORTH POINT GOVT PRIMARY SCHOOL (CLOUD VIEW RD),NORTH POINT GOVT PRIMARY SCHOOL (CLOUD VIEW RD),22.283077951632052
LAI KIT LAU LAI TAK TSUEN,114.19365112594939,励德邨励洁楼,301,勵德邨勵潔樓,bus,勵德邨勵潔樓,勵德邨勵潔樓,励德邨励洁楼,hktransit,LAI KIT LAU LAI TAK TSUEN,勵德邨勵潔樓,LAI KIT LAU LAI TAK TSUEN,LAI KIT LAU LAI TAK TSUEN,22.27886078638728
TSUEN WING LAU LAI TAK TSUEN,114.19455335331902,励德邨邨荣楼,3262,勵德邨邨榮樓,bus,勵德邨邨榮樓,勵德邨邨榮樓,励德邨邨荣楼,hktransit,TSUEN WING LAU LAI TAK TSUEN,勵德邨邨榮樓,TSUEN WING LAU LAI TAK TSUEN,TSUEN WING LAU LAI TAK TSUEN,22.27753318633509
LI KWAN AVENUE,114.19423305567474,利群道,3124,利群道,bus,利群道,利群道,利群道,hktransit,LI KWAN AVENUE,利群道,LI KWAN AVENUE,LI KWAN AVENUE,22.276756585850563
FONTANA GARDENS,114.19074009049629,豪园,304,豪園,bus,豪園,豪園,豪园,hktransit,FONTANA GARDENS,豪園,FONTANA GARDENS,FONTANA GARDENS,22.278003151129205
MORETON TERRACE,114.18879961771634,摩顿台,3033,摩頓台,bus,摩頓台,摩頓台,摩顿台,hktransit,MORETON TERRACE,摩頓台,MORETON TERRACE,MORETON TERRACE,22.27975524981759
YEE WO STREET,114.1853646779521,怡和街,586,怡和街,bus,怡和街,怡和街,怡和街,hktransit,YEE WO STREET,怡和街,YEE WO STREET,YEE WO STREET,22.279818681223965
CANAL ROAD EAST,114.18129897684885,坚拿道东,469,堅拿道東,bus,堅拿道東,堅拿道東,坚拿道东,hktransit,CANAL ROAD EAST,堅拿道東,CANAL ROAD EAST,CANAL ROAD EAST,22.278382972468943
RICHLAND GARDENS SHOPPING CENTRE,114.20562554392345,丽晶商场,8336,麗晶商場,bus,麗晶商場,麗晶商場,丽晶商场,hktransit,RICHLAND GARDENS SHOPPING CENTRE,麗晶商場,RICHLAND GARDENS SHOPPING CENTRE,RICHLAND GARDENS SHOPPING CENTRE,22.329656288527534
SKYLINE TOWER,114.205333732679,宏天广场,13133,宏天廣場,bus,宏天廣場,宏天廣場,宏天广场,hktransit,SKYLINE TOWER,宏天廣場,SKYLINE TOWER,SKYLINE TOWER,22.32664915561407
KAI TAK (TAK LONG ESTATE),114.204645296642,启德(德朗邨),13104,啟德(德朗邨),bus,啟德(德朗邨),啟德(德朗邨),启德(德朗邨),hktransit,KAI TAK (TAK LONG ESTATE),啟德(德朗邨),KAI TAK (TAK LONG ESTATE),KAI TAK (TAK LONG ESTATE),22.33029763103232
MUK HUNG STREET,114.20465535980857,沐虹街,13105,沐虹街,bus,沐虹街,沐虹街,沐虹街,hktransit,MUK HUNG STREET,沐虹街,MUK HUNG STREET,MUK HUNG STREET,22.33209471486743
